[
{ "type": "Feature", "properties": { "OBJECTID": 1, "NAME": "Old Fire Station #23", "ADDRESS": "722 18th Ave", "ORIG_ADDRE": "722 18th Ave", "PIN": "2254502235", "LANDNO": 767742, "ORDINANCE": 106050, "EFF_DATE": "1976-12-21T08:00:00Z", "SE_ANNO_CAD_DATA": null }, "geometry": { "type": "Point", "coordinates": [ -122.308532519354316, 47.608702010806624 ] } },
{ "type": "Feature", "properties": { "OBJECTID": 2, "NAME": "Charles Bussell House (Eman/Jacobsen)", "ADDRESS": "1630 36th Ave", "ORIG_ADDRE": "1630 36th Ave", "PIN": "7424700070", "LANDNO": 767743, "ORDINANCE": 108212, "EFF_DATE": "1979-05-14T08:00:00Z", "SE_ANNO_CAD_DATA": null }, "geometry": { "type": "Point", "coordinates": [ -122.28669927266165, 47.616036205710955 ] } },
{ "type": "Feature", "properties": { "OBJECTID": 3, "NAME": "Old Norway Hall", "ADDRESS": "2015 Boren Ave", "ORIG_ADDRE": "2015 Boren Ave", "PIN": "0660001490", "LANDNO": 767744, "ORDINANCE": 124375, "EFF_DATE": null, "SE_ANNO_CAD_DATA": null }, "geometry": { "type": "Point", "coordinates": [ -122.334722191087565, 47.617799851067012 ] } },
{ "type": "Feature", "properties": { "OBJECTID": 4, "NAME": "Rainier Cold Storage/Ice/Seattle Brewing/Malting Co. Bldg", "ADDRESS": "5622-6010 Airport Way S", "ORIG_ADDRE": "6000-6004 Airport Way S", "PIN": "0001800023", "LANDNO": 767745, "ORDINANCE": 116973, "EFF_DATE": "1993-12-13T08:00:00Z", "SE_ANNO_CAD_DATA": null }, "geometry": { "type": "Point", "coordinates": [ -122.318523621218546, 47.551417009766887 ] } },
{ "type": "Feature", "properties": { "OBJECTID": 5, "NAME": "Fourteenth Ave W Group", "ADDRESS": "2014 14th Ave W", "ORIG_ADDRE": "2000-2016 14th Ave W", "PIN": " ", "LANDNO": 767746, "ORDINANCE": 108211, "EFF_DATE": "1979-05-14T08:00:00Z", "SE_ANNO_CAD_DATA": null }, "geometry": { "type": "Point", "coordinates": [ -122.374669077733557, 47.63719072139321 ] } },
{ "type": "Feature", "properties": { "OBJECTID": 6, "NAME": "Old Fire Station #33", "ADDRESS": "10235 62nd Ave S", "ORIG_ADDRE": "10235 62nd Ave S", "PIN": "2520900050", "LANDNO": 767747, "ORDINANCE": 106053, "EFF_DATE": "1976-12-21T08:00:00Z", "SE_ANNO_CAD_DATA": null }, "geometry": { "type": "Point", "coordinates": [ -122.256381891647635, 47.508760922823441 ] } },
{ "type": "Feature", "properties": { "OBJECTID": 7, "NAME": "Hainsworth/Gordon House", "ADDRESS": "2657 37th Ave SW", "ORIG_ADDRE": "2657 37th Ave SW", "PIN": "9345400210", "LANDNO": 767748, "ORDINANCE": 109734, "EFF_DATE": "1981-03-02T08:00:00Z", "SE_ANNO_CAD_DATA": null }, "geometry": { "type": "Point", "coordinates": [ -122.378408403106818, 47.579994584155557 ] } },
{ "type": "Feature", "properties": { "OBJECTID": 8, "NAME": "Admiral Theater", "ADDRESS": "2343 California Ave SW", "ORIG_ADDRE": "2343 California Ave SW", "PIN": "6379500055", "LANDNO": 767749, "ORDINANCE": 116972, "EFF_DATE": "1993-12-13T08:00:00Z", "SE_ANNO_CAD_DATA": null }, "geometry": { "type": "Point", "coordinates": [ -122.386898293122741, 47.581976671414289 ] } },
{ "type": "Feature", "properties": { "OBJECTID": 9, "NAME": "Gatewood School", "ADDRESS": "4320 SW Myrtle St", "ORIG_ADDRE": "4320 SW Myrtle St", "PIN": "4315700020", "LANDNO": 767750, "ORDINANCE": 0, "EFF_DATE": null, "SE_ANNO_CAD_DATA": null }, "geometry": { "type": "Point", "coordinates": [ -122.389415247480585, 47.540290703347267 ] } },
{ "type": "Feature", "properties": { "OBJECTID": 10, "NAME": "Langston Hughes Cultural Arts Center", "ADDRESS": "104 17th Ave S", "ORIG_ADDRE": "104 17th Ave S", "PIN": "9826700795", "LANDNO": 767751, "ORDINANCE": 110354, "EFF_DATE": "1981-12-28T08:00:00Z", "SE_ANNO_CAD_DATA": null }, "geometry": { "type": "Point", "coordinates": [ -122.309876983357341, 47.601408560697706 ] } },
{ "type": "Feature", "properties": { "OBJECTID": 11, "NAME": "Thompson/LaTurner House", "ADDRESS": "3119 S Day St", "ORIG_ADDRE": "3119 S Day St", "PIN": "6909200597", "LANDNO": 767752, "ORDINANCE": 107613, "EFF_DATE": "1978-08-14T08:00:00Z", "SE_ANNO_CAD_DATA": null }, "geometry": { "type": "Point", "coordinates": [ -122.291681822954786, 47.590092091849378 ] } },
{ "type": "Feature", "properties": { "OBJECTID": 12, "NAME": "Black Manufacturing Building", "ADDRESS": "1130 Rainier Ave S", "ORIG_ADDRE": "1130 Rainier Ave S", "PIN": "7132300370", "LANDNO": 767753, "ORDINANCE": 113601, "EFF_DATE": "1987-09-08T08:00:00Z", "SE_ANNO_CAD_DATA": null }, "geometry": { "type": "Point", "coordinates": [ -122.308950784156821, 47.593103422914979 ] } },
{ "type": "Feature", "properties": { "OBJECTID": 13, "NAME": "Victorian House", "ADDRESS": "1414 S Washington St", "ORIG_ADDRE": "1414 S Washington St", "PIN": "3319500060", "LANDNO": 767754, "ORDINANCE": 108225, "EFF_DATE": "1979-05-12T08:00:00Z", "SE_ANNO_CAD_DATA": null }, "geometry": { "type": "Point", "coordinates": [ -122.313447955671251, 47.601099012574693 ] } },
{ "type": "Feature", "properties": { "OBJECTID": 14, "NAME": "Seattle Buddhist Church", "ADDRESS": "1427 S Main St", "ORIG_ADDRE": "1427 S Main St", "PIN": "3320000165", "LANDNO": 767755, "ORDINANCE": 106100, "EFF_DATE": "1976-12-27T08:00:00Z", "SE_ANNO_CAD_DATA": null }, "geometry": { "type": "Point", "coordinates": [ -122.313124013094765, 47.599793665978922 ] } },
{ "type": "Feature", "properties": { "OBJECTID": 15, "NAME": "Old Main St School", "ADDRESS": "307 6th Ave S", "ORIG_ADDRE": "307 6th Ave S", "PIN": "5247801606", "LANDNO": 767756, "ORDINANCE": 106147, "EFF_DATE": "1977-01-17T08:00:00Z", "SE_ANNO_CAD_DATA": null }, "geometry": { "type": "Point", "coordinates": [ -122.326603528088668, 47.599705447960773 ] } },
{ "type": "Feature", "properties": { "OBJECTID": 16, "NAME": "Chinese Community Bulletin Board", "ADDRESS": "511 7th Ave S", "ORIG_ADDRE": "511 7th Ave S", "PIN": "5247802380", "LANDNO": 767757, "ORDINANCE": 106072, "EFF_DATE": "1976-12-21T08:00:00Z", "SE_ANNO_CAD_DATA": null }, "geometry": { "type": "Point", "coordinates": [ -122.324132087353576, 47.598023808368502 ] } },
{ "type": "Feature", "properties": { "OBJECTID": 17, "NAME": "Eastern Hotel", "ADDRESS": "506 Maynard Ave S", "ORIG_ADDRE": "506-1/2 Maynard Ave S", "PIN": "5247802350", "LANDNO": 767758, "ORDINANCE": 107750, "EFF_DATE": "1978-10-23T08:00:00Z", "SE_ANNO_CAD_DATA": null }, "geometry": { "type": "Point", "coordinates": [ -122.324682929876872, 47.598024686138551 ] } },
{ "type": "Feature", "properties": { "OBJECTID": 18, "NAME": "Pacific Medical Center/Former U.S. Marine Hospital", "ADDRESS": "1200 12th Ave S", "ORIG_ADDRE": "1200 12th Ave S", "PIN": "2829600110", "LANDNO": 767759, "ORDINANCE": 116055, "EFF_DATE": "1992-01-27T08:00:00Z", "SE_ANNO_CAD_DATA": null }, "geometry": { "type": "Point", "coordinates": [ -122.316347409944441, 47.592714778500344 ] } },
{ "type": "Feature", "properties": { "OBJECTID": 19, "NAME": "Hoge Building", "ADDRESS": "705 2nd Ave", "ORIG_ADDRE": "705 2nd Ave", "PIN": "0939000230", "LANDNO": 767760, "ORDINANCE": 111889, "EFF_DATE": "1984-09-10T08:00:00Z", "SE_ANNO_CAD_DATA": null }, "geometry": { "type": "Point", "coordinates": [ -122.333669472149751, 47.603022086160991 ] } },
{ "type": "Feature", "properties": { "OBJECTID": 20, "NAME": "Flatiron Building", "ADDRESS": "551 1st Ave S", "ORIG_ADDRE": "551 1st Ave S", "PIN": "7666206935", "LANDNO": 767761, "ORDINANCE": 106141, "EFF_DATE": "1977-01-10T08:00:00Z", "SE_ANNO_CAD_DATA": null }, "geometry": { "type": "Point", "coordinates": [ -122.334426683958739, 47.596805211606416 ] } },
{ "type": "Feature", "properties": { "OBJECTID": 21, "NAME": "Franklin High School", "ADDRESS": "3013 S Mount Baker Blvd", "ORIG_ADDRE": "3013 S Mount Baker Blvd", "PIN": "5700000455", "LANDNO": 767762, "ORDINANCE": 0, "EFF_DATE": null, "SE_ANNO_CAD_DATA": null }, "geometry": { "type": "Point", "coordinates": [ -122.293003755465364, 47.576128289637701 ] } },
{ "type": "Feature", "properties": { "OBJECTID": 22, "NAME": "Kraus/Andersson House", "ADDRESS": "2812 Mount St Helens Pl S", "ORIG_ADDRE": "2812 Mount St Helens Pl S", "PIN": "5700003530", "LANDNO": 767763, "ORDINANCE": 110492, "EFF_DATE": "1982-03-22T08:00:00Z", "SE_ANNO_CAD_DATA": null }, "geometry": { "type": "Point", "coordinates": [ -122.286346312891496, 47.578022573596556 ] } },
{ "type": "Feature", "properties": { "OBJECTID": 23, "NAME": "Cleveland High School", "ADDRESS": "5511 15th Ave S", "ORIG_ADDRE": "5511 15th Ave S", "PIN": "7549802085", "LANDNO": 767764, "ORDINANCE": 121275, "EFF_DATE": "2003-10-26T08:00:00Z", "SE_ANNO_CAD_DATA": null }, "geometry": { "type": "Point", "coordinates": [ -122.314253465622315, 47.552258501157972 ] } },
{ "type": "Feature", "properties": { "OBJECTID": 24, "NAME": "Georgetown City Hall / Fire Station #27", "ADDRESS": "6202 13th Ave S", "ORIG_ADDRE": "6202 13th Ave S", "PIN": "7006200345", "LANDNO": 767765, "ORDINANCE": 111302, "EFF_DATE": "1983-09-12T08:00:00Z", "SE_ANNO_CAD_DATA": null }, "geometry": { "type": "Point", "coordinates": [ -122.315819485347731, 47.547564646506416 ] } },
{ "type": "Feature", "properties": { "OBJECTID": 25, "NAME": "Cotterill House", "ADDRESS": "2501 Westview Dr W", "ORIG_ADDRE": "2501 Westview Dr W", "PIN": "7871500475", "LANDNO": 767766, "ORDINANCE": 107751, "EFF_DATE": "1978-10-23T08:00:00Z", "SE_ANNO_CAD_DATA": null }, "geometry": { "type": "Point", "coordinates": [ -122.37096557736642, 47.640871167706848 ] } },
{ "type": "Feature", "properties": { "OBJECTID": 26, "NAME": "Handschy/Kistler House", "ADDRESS": "2433 9th Ave W", "ORIG_ADDRE": "2433 9th Ave W", "PIN": "7871500040", "LANDNO": 767767, "ORDINANCE": 111024, "EFF_DATE": "1983-02-22T08:00:00Z", "SE_ANNO_CAD_DATA": null }, "geometry": { "type": "Point", "coordinates": [ -122.369275606132817, 47.640557694069514 ] } },
{ "type": "Feature", "properties": { "OBJECTID": 27, "NAME": "Ballard/Howe House", "ADDRESS": "22 W Highland Dr", "ORIG_ADDRE": "22 W Highland Dr", "PIN": "1731800590", "LANDNO": 767768, "ORDINANCE": 108226, "EFF_DATE": "1979-05-14T08:00:00Z", "SE_ANNO_CAD_DATA": null }, "geometry": { "type": "Point", "coordinates": [ -122.357568502110851, 47.629881069610477 ] } },
{ "type": "Feature", "properties": { "OBJECTID": 28, "NAME": "Ramsing House", "ADDRESS": "540 NE 80th St", "ORIG_ADDRE": "540 NE 80th St", "PIN": "2878601495", "LANDNO": 767769, "ORDINANCE": 113261, "EFF_DATE": "1986-12-29T08:00:00Z", "SE_ANNO_CAD_DATA": null }, "geometry": { "type": "Point", "coordinates": [ -122.321194633430579, 47.687009986239538 ] } },
{ "type": "Feature", "properties": { "OBJECTID": 29, "NAME": "Church of the Blessed Sacrament and Rectory", "ADDRESS": "5041 9th Ave NE", "ORIG_ADDRE": "5041 9th Ave NE", "PIN": "2862100750", "LANDNO": 767770, "ORDINANCE": 109732, "EFF_DATE": "1981-03-02T08:00:00Z", "SE_ANNO_CAD_DATA": null }, "geometry": { "type": "Point", "coordinates": [ -122.318744201876669, 47.666547386515994 ] } },
{ "type": "Feature", "properties": { "OBJECTID": 30, "NAME": "Fremont Trolley Barn/Red Hook Ale Brewery", "ADDRESS": "3400 Phinney Ave N", "ORIG_ADDRE": "3400 Phinney Ave N", "PIN": "1972203220", "LANDNO": 767771, "ORDINANCE": 116054, "EFF_DATE": "1992-01-27T08:00:00Z", "SE_ANNO_CAD_DATA": null }, "geometry": { "type": "Point", "coordinates": [ -122.352854123052978, 47.650557421433 ] } },
{ "type": "Feature", "properties": { "OBJECTID": 31, "NAME": "Fisher-Howell House", "ADDRESS": "2819 Franklin Ave E", "ORIG_ADDRE": "2819 Franklin Ave E", "PIN": "1959701445", "LANDNO": 767772, "ORDINANCE": 125836, "EFF_DATE": "1984-09-10T08:00:00Z", "SE_ANNO_CAD_DATA": null }, "geometry": { "type": "Point", "coordinates": [ -122.324453031869993, 47.646245317287502 ] } },
{ "type": "Feature", "properties": { "OBJECTID": 32, "NAME": "Boyer/Lambert House", "ADDRESS": "1617 Boyer Ave E", "ORIG_ADDRE": "1617 Boyer Ave E", "PIN": "3592500285", "LANDNO": 767773, "ORDINANCE": 111021, "EFF_DATE": "1983-02-22T08:00:00Z", "SE_ANNO_CAD_DATA": null }, "geometry": { "type": "Point", "coordinates": [ -122.29999640420823, 47.633947768347525 ] } },
{ "type": "Feature", "properties": { "OBJECTID": 33, "NAME": "Hebrew Academy/Old Forest Ridge Convent and Site", "ADDRESS": "1617 Interlaken Dr E", "ORIG_ADDRE": "1617 Interlaken Dr E", "PIN": "2125049015", "LANDNO": 767774, "ORDINANCE": 108519, "EFF_DATE": "1979-07-17T08:00:00Z", "SE_ANNO_CAD_DATA": null }, "geometry": { "type": "Point", "coordinates": [ -122.307953226908424, 47.634743236892739 ] } },
{ "type": "Feature", "properties": { "OBJECTID": 34, "NAME": "Samuel Hyde House", "ADDRESS": "3726 E Madison St", "ORIG_ADDRE": "3726 E Madison St", "PIN": "5316100400", "LANDNO": 767775, "ORDINANCE": 117097, "EFF_DATE": "1994-04-18T08:00:00Z", "SE_ANNO_CAD_DATA": null }, "geometry": { "type": "Point", "coordinates": [ -122.284483800025626, 47.631836711295115 ] } },
{ "type": "Feature", "properties": { "OBJECTID": 35, "NAME": "Ellsworth Storey House ", "ADDRESS": "260 Dorffel Dr E", "ORIG_ADDRE": "260 Dorffel Dr E", "PIN": "1954700475", "LANDNO": 767776, "ORDINANCE": 106071, "EFF_DATE": "1976-12-13T08:00:00Z", "SE_ANNO_CAD_DATA": null }, "geometry": { "type": "Point", "coordinates": [ -122.284516130202974, 47.621055277734698 ] } },
{ "type": "Feature", "properties": { "OBJECTID": 36, "NAME": "Brehm Brothers House #2", "ADDRESS": "221 36th Ave E", "ORIG_ADDRE": "221 36th Ave E", "PIN": "1778500355", "LANDNO": 767777, "ORDINANCE": 108734, "EFF_DATE": "1979-12-24T08:00:00Z", "SE_ANNO_CAD_DATA": null }, "geometry": { "type": "Point", "coordinates": [ -122.287217772153753, 47.620841112435187 ] } },
{ "type": "Feature", "properties": { "OBJECTID": 37, "NAME": "James W Washington, Jr., Home and Studio", "ADDRESS": "1816 26th Ave", "ORIG_ADDRE": "1816 26th Ave", "PIN": "9828701990", "LANDNO": 767778, "ORDINANCE": 116052, "EFF_DATE": "1992-01-27T08:00:00Z", "SE_ANNO_CAD_DATA": null }, "geometry": { "type": "Point", "coordinates": [ -122.298186231741937, 47.618269567554556 ] } },
{ "type": "Feature", "properties": { "OBJECTID": 38, "NAME": "1st Church of Christ,Scientist", "ADDRESS": "1519 E Denny Way", "ORIG_ADDRE": "1519 E Denny Way", "PIN": "8080400145", "LANDNO": 767779, "ORDINANCE": 106145, "EFF_DATE": "1977-01-17T08:00:00Z", "SE_ANNO_CAD_DATA": null }, "geometry": { "type": "Point", "coordinates": [ -122.311822760181883, 47.618026947403131 ] } },
{ "type": "Feature", "properties": { "OBJECTID": 39, "NAME": "Hillcrest Apartment Building", "ADDRESS": "1616 E Howell St", "ORIG_ADDRE": "1616 E Howell St", "PIN": "8080400185", "LANDNO": 767780, "ORDINANCE": 109733, "EFF_DATE": "1981-03-11T08:00:00Z", "SE_ANNO_CAD_DATA": null }, "geometry": { "type": "Point", "coordinates": [ -122.310516205503561, 47.617858915256988 ] } },
{ "type": "Feature", "properties": { "OBJECTID": 40, "NAME": "Seattle Art Museum at Volunteer Park", "ADDRESS": "1400 E Prospect St", "ORIG_ADDRE": "1400 E Prospect St", "PIN": "2925049087", "LANDNO": 767781, "ORDINANCE": 125418, "EFF_DATE": null, "SE_ANNO_CAD_DATA": null }, "geometry": { "type": "Point", "coordinates": [ -122.314318785905741, 47.630294146791975 ] } },
{ "type": "Feature", "properties": { "OBJECTID": 41, "NAME": "Parker-Fersen House", "ADDRESS": "1409 E Prospect St", "ORIG_ADDRE": "1409 E Prospect St", "PIN": "1346300200", "LANDNO": 767782, "ORDINANCE": 113423, "EFF_DATE": "1987-05-11T08:00:00Z", "SE_ANNO_CAD_DATA": null }, "geometry": { "type": "Point", "coordinates": [ -122.313933721829301, 47.628202428858664 ] } },
{ "type": "Feature", "properties": { "OBJECTID": 42, "NAME": "Moore Mansion", "ADDRESS": "811 14th Ave E", "ORIG_ADDRE": "811 14th Ave E", "PIN": "1346300060", "LANDNO": 767783, "ORDINANCE": 116971, "EFF_DATE": "1993-12-13T08:00:00Z", "SE_ANNO_CAD_DATA": null }, "geometry": { "type": "Point", "coordinates": [ -122.31492385213113, 47.626508230306762 ] } },
{ "type": "Feature", "properties": { "OBJECTID": 43, "NAME": "Maryland Apartments", "ADDRESS": "626 13th Ave E", "ORIG_ADDRE": "626 13th Ave E", "PIN": "6851700045", "LANDNO": 767784, "ORDINANCE": 114995, "EFF_DATE": "1990-03-19T08:00:00Z", "SE_ANNO_CAD_DATA": null }, "geometry": { "type": "Point", "coordinates": [ -122.315353007668875, 47.624896775428105 ] } },
{ "type": "Feature", "properties": { "OBJECTID": 44, "NAME": "St Spiridon Russian Orthodox Cathedral", "ADDRESS": "400 Yale Ave N", "ORIG_ADDRE": "400 Yale Ave N", "PIN": "6847700030", "LANDNO": 767785, "ORDINANCE": 106099, "EFF_DATE": "1976-12-20T08:00:00Z", "SE_ANNO_CAD_DATA": null }, "geometry": { "type": "Point", "coordinates": [ -122.330065446993274, 47.622147806059374 ] } },
{ "type": "Feature", "properties": { "OBJECTID": 45, "NAME": "San Remo Apartment Building", "ADDRESS": "606 E Thomas St", "ORIG_ADDRE": "606 E Thomas St", "PIN": "6848200770", "LANDNO": 767786, "ORDINANCE": 113988, "EFF_DATE": "1988-05-31T08:00:00Z", "SE_ANNO_CAD_DATA": null }, "geometry": { "type": "Point", "coordinates": [ -122.323743551490054, 47.62101477532584 ] } },
{ "type": "Feature", "properties": { "OBJECTID": 46, "NAME": "Immanual Lutheran Church", "ADDRESS": "1215 Thomas St", "ORIG_ADDRE": "1215 Thomas St", "PIN": "2467400400", "LANDNO": 767787, "ORDINANCE": 109730, "EFF_DATE": "1981-03-02T08:00:00Z", "SE_ANNO_CAD_DATA": null }, "geometry": { "type": "Point", "coordinates": [ -122.332142841319396, 47.620653731088709 ] } },
{ "type": "Feature", "properties": { "OBJECTID": 47, "NAME": "Queen Anne High School", "ADDRESS": "215 Galer St", "ORIG_ADDRE": "215 Galer St", "PIN": "3803000005", "LANDNO": 767788, "ORDINANCE": 112274, "EFF_DATE": "1985-05-16T08:00:00Z", "SE_ANNO_CAD_DATA": null }, "geometry": { "type": "Point", "coordinates": [ -122.351984000446677, 47.631638670710394 ] } },
{ "type": "Feature", "properties": { "OBJECTID": 48, "NAME": "Brace/Moriarty House", "ADDRESS": "170 Prospect St", "ORIG_ADDRE": "170 Prospect St", "PIN": "5457300940", "LANDNO": 767789, "ORDINANCE": 109586, "EFF_DATE": "1980-12-22T08:00:00Z", "SE_ANNO_CAD_DATA": null }, "geometry": { "type": "Point", "coordinates": [ -122.353045370749172, 47.629194688013911 ] } },
{ "type": "Feature", "properties": { "OBJECTID": 49, "NAME": "Times Square Building", "ADDRESS": "414 Olive Way", "ORIG_ADDRE": "414 Olive Way", "PIN": "0659000385", "LANDNO": 767790, "ORDINANCE": 111883, "EFF_DATE": "1984-09-10T08:00:00Z", "SE_ANNO_CAD_DATA": null }, "geometry": { "type": "Point", "coordinates": [ -122.337909435746425, 47.612670808523653 ] } },
{ "type": "Feature", "properties": { "OBJECTID": 50, "NAME": "West Seattle Library", "ADDRESS": "2306 42nd Av SW", "ORIG_ADDRE": "2306 42nd Av SW", "PIN": "6087100165", "LANDNO": 767791, "ORDINANCE": 121102, "EFF_DATE": "2003-03-24T08:00:00Z", "SE_ANNO_CAD_DATA": null }, "geometry": { "type": "Point", "coordinates": [ -122.384738489951019, 47.582716731925217 ] } },
{ "type": "Feature", "properties": { "OBJECTID": 51, "NAME": "Douglass-Truth Library", "ADDRESS": "2300 E Yesler Way", "ORIG_ADDRE": "2300 E Yesler Way", "PIN": "6840701735", "LANDNO": 767792, "ORDINANCE": 121107, "EFF_DATE": "2003-03-24T08:00:00Z", "SE_ANNO_CAD_DATA": null }, "geometry": { "type": "Point", "coordinates": [ -122.301953901805277, 47.601916714867365 ] } },
{ "type": "Feature", "properties": { "OBJECTID": 52, "NAME": "University Library", "ADDRESS": "5009 Roosevelt Way", "ORIG_ADDRE": "5009 Roosevelt Way", "PIN": "0825049041", "LANDNO": 767793, "ORDINANCE": 121104, "EFF_DATE": "2003-03-24T08:00:00Z", "SE_ANNO_CAD_DATA": null }, "geometry": { "type": "Point", "coordinates": [ -122.317913043340184, 47.665249176325105 ] } },
{ "type": "Feature", "properties": { "OBJECTID": 53, "NAME": "Fremont Library", "ADDRESS": "731 N 35th St", "ORIG_ADDRE": "731 N 35th St", "PIN": "1972202795", "LANDNO": 767794, "ORDINANCE": 121103, "EFF_DATE": "2003-03-24T08:00:00Z", "SE_ANNO_CAD_DATA": null }, "geometry": { "type": "Point", "coordinates": [ -122.348446423722635, 47.650044783198439 ] } },
{ "type": "Feature", "properties": { "OBJECTID": 54, "NAME": "Madison Middle School", "ADDRESS": "3429 45th Av SW", "ORIG_ADDRE": "3429 45th Av SW", "PIN": "9278300005", "LANDNO": 767795, "ORDINANCE": 0, "EFF_DATE": null, "SE_ANNO_CAD_DATA": null }, "geometry": { "type": "Point", "coordinates": [ -122.390217438393748, 47.572947803616344 ] } },
{ "type": "Feature", "properties": { "OBJECTID": 55, "NAME": "Volunteer Park Conservatory", "ADDRESS": "1400 E Galer St", "ORIG_ADDRE": "1400 E Galer St", "PIN": "2925049087", "LANDNO": 767796, "ORDINANCE": 123344, "EFF_DATE": null, "SE_ANNO_CAD_DATA": null }, "geometry": { "type": "Point", "coordinates": [ -122.315753860405181, 47.632131413317467 ] } },
{ "type": "Feature", "properties": { "OBJECTID": 56, "NAME": "Roosevelt High School", "ADDRESS": "1410 NE 66th St", "ORIG_ADDRE": "1410 NE 66th St", "PIN": "8826900005", "LANDNO": 767797, "ORDINANCE": 0, "EFF_DATE": null, "SE_ANNO_CAD_DATA": null }, "geometry": { "type": "Point", "coordinates": [ -122.312822694991539, 47.677237326191687 ] } },
{ "type": "Feature", "properties": { "OBJECTID": 57, "NAME": "Hat 'n Boots", "ADDRESS": "6430 Corson Avenue S", "ORIG_ADDRE": "6910 East Marginal Way S", "PIN": "0001800137", "LANDNO": 767798, "ORDINANCE": 123623, "EFF_DATE": null, "SE_ANNO_CAD_DATA": null }, "geometry": { "type": "Point", "coordinates": [ -122.321683060901776, 47.545111029098607 ] } },
{ "type": "Feature", "properties": { "OBJECTID": 58, "NAME": "Cheasty Blvd South", "ADDRESS": "Cheasty Blvd S Ord 25148", "ORIG_ADDRE": "Cheasty Blvd S Ord 25148", "PIN": " ", "LANDNO": 767799, "ORDINANCE": 0, "EFF_DATE": null, "SE_ANNO_CAD_DATA": null }, "geometry": { "type": "Point", "coordinates": [ -122.299290290558446, 47.568146592809875 ] } },
{ "type": "Feature", "properties": { "OBJECTID": 59, "NAME": "Providence Hospital 1910 Bldg", "ADDRESS": "528 17th Ave", "ORIG_ADDRE": "528 and 538 17th Ave", "PIN": "7942600330", "LANDNO": 767800, "ORDINANCE": 121588, "EFF_DATE": "2004-10-22T08:00:00Z", "SE_ANNO_CAD_DATA": null }, "geometry": { "type": "Point", "coordinates": [ -122.309671726291285, 47.607070872478381 ] } },
{ "type": "Feature", "properties": { "OBJECTID": 60, "NAME": "Seattle Monorail", "ADDRESS": " ", "ORIG_ADDRE": " ", "PIN": "1985200550", "LANDNO": 767801, "ORDINANCE": 121240, "EFF_DATE": "2003-08-04T08:00:00Z", "SE_ANNO_CAD_DATA": null }, "geometry": { "type": "Point", "coordinates": [ -122.349697224249169, 47.621240478904831 ] } },
{ "type": "Feature", "properties": { "OBJECTID": 61, "NAME": "Seattle Monorail", "ADDRESS": " ", "ORIG_ADDRE": " ", "PIN": "1991200005", "LANDNO": 767802, "ORDINANCE": 121240, "EFF_DATE": "2003-08-04T08:00:00Z", "SE_ANNO_CAD_DATA": null }, "geometry": { "type": "Point", "coordinates": [ -122.347995149499212, 47.621076686465152 ] } },
{ "type": "Feature", "properties": { "OBJECTID": 62, "NAME": "Seattle Monorail", "ADDRESS": " ", "ORIG_ADDRE": " ", "PIN": "1991200235", "LANDNO": 767803, "ORDINANCE": 121240, "EFF_DATE": "2003-08-04T08:00:00Z", "SE_ANNO_CAD_DATA": null }, "geometry": { "type": "Point", "coordinates": [ -122.347396223682082, 47.618717992840253 ] } },
{ "type": "Feature", "properties": { "OBJECTID": 63, "NAME": "Seattle Monorail", "ADDRESS": " ", "ORIG_ADDRE": " ", "PIN": " ", "LANDNO": 767804, "ORDINANCE": 121240, "EFF_DATE": "2003-08-04T08:00:00Z", "SE_ANNO_CAD_DATA": null }, "geometry": { "type": "Point", "coordinates": [ -122.345514924832671, 47.617495130492209 ] } },
{ "type": "Feature", "properties": { "OBJECTID": 64, "NAME": "Seattle Monorail", "ADDRESS": " ", "ORIG_ADDRE": " ", "PIN": " ", "LANDNO": 767805, "ORDINANCE": 121240, "EFF_DATE": "2003-08-04T08:00:00Z", "SE_ANNO_CAD_DATA": null }, "geometry": { "type": "Point", "coordinates": [ -122.343032353076453, 47.616022038618198 ] } },
{ "type": "Feature", "properties": { "OBJECTID": 65, "NAME": "Seattle Monorail", "ADDRESS": " ", "ORIG_ADDRE": " ", "PIN": " ", "LANDNO": 767806, "ORDINANCE": 121240, "EFF_DATE": "2003-08-04T08:00:00Z", "SE_ANNO_CAD_DATA": null }, "geometry": { "type": "Point", "coordinates": [ -122.340636295251016, 47.614590806486468 ] } },
{ "type": "Feature", "properties": { "OBJECTID": 66, "NAME": "Seattle Monorail", "ADDRESS": " ", "ORIG_ADDRE": " ", "PIN": " ", "LANDNO": 767807, "ORDINANCE": 121240, "EFF_DATE": "2003-08-04T08:00:00Z", "SE_ANNO_CAD_DATA": null }, "geometry": { "type": "Point", "coordinates": [ -122.337958924832563, 47.612962392967994 ] } },
{ "type": "Feature", "properties": { "OBJECTID": 67, "NAME": "Seattle Monorail", "ADDRESS": " ", "ORIG_ADDRE": " ", "PIN": "0659000005", "LANDNO": 767808, "ORDINANCE": 121240, "EFF_DATE": "2003-08-04T08:00:00Z", "SE_ANNO_CAD_DATA": null }, "geometry": { "type": "Point", "coordinates": [ -122.336997567348618, 47.611934206704937 ] } },
{ "type": "Feature", "properties": { "OBJECTID": 68, "NAME": "Seward Park Inn/Annex", "ADDRESS": "5900 Lake Washington Blvd S", "ORIG_ADDRE": "5900 Lake Washington Blvd S", "PIN": "2324049007", "LANDNO": 767809, "ORDINANCE": 123429, "EFF_DATE": null, "SE_ANNO_CAD_DATA": null }, "geometry": { "type": "Point", "coordinates": [ -122.256273979192102, 47.549635998555715 ] } },
{ "type": "Feature", "properties": { "OBJECTID": 69, "NAME": "Golden Gardens Bath House", "ADDRESS": "8001 Seaview Ave NW", "ORIG_ADDRE": "8001 Seaview Ave NW", "PIN": "3426039006", "LANDNO": 767810, "ORDINANCE": 121716, "EFF_DATE": "2005-02-23T08:00:00Z", "SE_ANNO_CAD_DATA": null }, "geometry": { "type": "Point", "coordinates": [ -122.40396906664327, 47.691775571616454 ] } },
{ "type": "Feature", "properties": { "OBJECTID": 70, "NAME": "Garfield High School", "ADDRESS": "400 23rd Ave", "ORIG_ADDRE": "400 23rd Ave", "PIN": "6840701230", "LANDNO": 767811, "ORDINANCE": 0, "EFF_DATE": null, "SE_ANNO_CAD_DATA": null }, "geometry": { "type": "Point", "coordinates": [ -122.301982765914744, 47.604495608557755 ] } },
{ "type": "Feature", "properties": { "OBJECTID": 71, "NAME": "Gibbs House", "ADDRESS": "1000 Warren Av N", "ORIG_ADDRE": "1000 Warren Av N", "PIN": "5457300926", "LANDNO": 767812, "ORDINANCE": 121426, "EFF_DATE": "2004-05-08T08:00:00Z", "SE_ANNO_CAD_DATA": null }, "geometry": { "type": "Point", "coordinates": [ -122.353670728485824, 47.628383033640475 ] } },
{ "type": "Feature", "properties": { "OBJECTID": 72, "NAME": "Dakota Place Park", "ADDRESS": "4304 SW Dakota St", "ORIG_ADDRE": "4304 SW Dakota St", "PIN": "3010301030", "LANDNO": 767813, "ORDINANCE": 123624, "EFF_DATE": null, "SE_ANNO_CAD_DATA": null }, "geometry": { "type": "Point", "coordinates": [ -122.387032879113903, 47.566767361942496 ] } },
{ "type": "Feature", "properties": { "OBJECTID": 73, "NAME": "Henry Owen Shuey House", "ADDRESS": "5218 16th Ave NE", "ORIG_ADDRE": "5218 16th Ave NE", "PIN": "4232400455", "LANDNO": 767814, "ORDINANCE": 121274, "EFF_DATE": "2003-10-26T08:00:00Z", "SE_ANNO_CAD_DATA": null }, "geometry": { "type": "Point", "coordinates": [ -122.310436623289931, 47.666994267604757 ] } },
{ "type": "Feature", "properties": { "OBJECTID": 74, "NAME": "Cooper Elementary School", "ADDRESS": "4408 Delridge Way SW", "ORIG_ADDRE": "4408 Delridge Way SW", "PIN": "1324039018", "LANDNO": 767815, "ORDINANCE": 121866, "EFF_DATE": "2005-08-24T08:00:00Z", "SE_ANNO_CAD_DATA": null }, "geometry": { "type": "Point", "coordinates": [ -122.363003721776948, 47.56379890867013 ] } },
{ "type": "Feature", "properties": { "OBJECTID": 75, "NAME": "Mt Baker Presbyterian Church", "ADDRESS": "3201 Hunter Blvd S", "ORIG_ADDRE": "3201 Hunter Blvd S", "PIN": "5700002905", "LANDNO": 767816, "ORDINANCE": 125154, "EFF_DATE": null, "SE_ANNO_CAD_DATA": null }, "geometry": { "type": "Point", "coordinates": [ -122.285360228510058, 47.574988965229394 ] } },
{ "type": "Feature", "properties": { "OBJECTID": 76, "NAME": "Pantages House", "ADDRESS": "803 E Denny Way", "ORIG_ADDRE": "803 E Denny Way", "PIN": "6003001299", "LANDNO": 767817, "ORDINANCE": 123023, "EFF_DATE": "2009-08-07T08:00:00Z", "SE_ANNO_CAD_DATA": null }, "geometry": { "type": "Point", "coordinates": [ -122.321954398943092, 47.618564887710676 ] } },
{ "type": "Feature", "properties": { "OBJECTID": 77, "NAME": "Querio House", "ADDRESS": "9364 7th Ave S", "ORIG_ADDRE": "9326 7th Ave S", "PIN": "2433200115", "LANDNO": 767818, "ORDINANCE": 0, "EFF_DATE": null, "SE_ANNO_CAD_DATA": null }, "geometry": { "type": "Point", "coordinates": [ -122.324730909878042, 47.518934403671295 ] } },
{ "type": "Feature", "properties": { "OBJECTID": 78, "NAME": "Fort Lawton Chapel", "ADDRESS": "3801 W Government Way", "ORIG_ADDRE": "631 Washington Ave", "PIN": "1525039042", "LANDNO": 767819, "ORDINANCE": 114011, "EFF_DATE": null, "SE_ANNO_CAD_DATA": null }, "geometry": { "type": "Point", "coordinates": [ -122.41276553567252, 47.655607961969793 ] } },
{ "type": "Feature", "properties": { "OBJECTID": 79, "NAME": "Fire Station #13", "ADDRESS": "3601 Beacon Ave S", "ORIG_ADDRE": "3601 Beacon Ave S", "PIN": "1624049270", "LANDNO": 767820, "ORDINANCE": 123289, "EFF_DATE": null, "SE_ANNO_CAD_DATA": null }, "geometry": { "type": "Point", "coordinates": [ -122.308713457080771, 47.571707729751537 ] } },
{ "type": "Feature", "properties": { "OBJECTID": 80, "NAME": "Fire Station #16", "ADDRESS": "6846 Oswego Pl NE", "ORIG_ADDRE": "6846 Oswego Pl NE", "PIN": "9528103550", "LANDNO": 767821, "ORDINANCE": 122464, "EFF_DATE": "2007-09-21T08:00:00Z", "SE_ANNO_CAD_DATA": null }, "geometry": { "type": "Point", "coordinates": [ -122.323253443643949, 47.679082412612509 ] } },
{ "type": "Feature", "properties": { "OBJECTID": 81, "NAME": "Fire Station #37", "ADDRESS": "7302 35th Ave SW", "ORIG_ADDRE": "7302 35th Ave SW", "PIN": "8122100070", "LANDNO": 767822, "ORDINANCE": 122466, "EFF_DATE": "2007-09-21T08:00:00Z", "SE_ANNO_CAD_DATA": null }, "geometry": { "type": "Point", "coordinates": [ -122.376234536526965, 47.537187175643822 ] } },
{ "type": "Feature", "properties": { "OBJECTID": 82, "NAME": "Fire Station #38", "ADDRESS": "5503 33rd Ave NE", "ORIG_ADDRE": "5503 33rd Ave NE", "PIN": "8827901028", "LANDNO": 767823, "ORDINANCE": 122467, "EFF_DATE": "2007-09-21T08:00:00Z", "SE_ANNO_CAD_DATA": null }, "geometry": { "type": "Point", "coordinates": [ -122.292954055281953, 47.668706656083984 ] } },
{ "type": "Feature", "properties": { "OBJECTID": 83, "NAME": "Montlake Community Center", "ADDRESS": "1618 E Calhoun St", "ORIG_ADDRE": "1618 E Calhoun St", "PIN": "6788202280", "LANDNO": 767824, "ORDINANCE": 123343, "EFF_DATE": null, "SE_ANNO_CAD_DATA": null }, "geometry": { "type": "Point", "coordinates": [ -122.309962501200147, 47.641714744789311 ] } },
{ "type": "Feature", "properties": { "OBJECTID": 84, "NAME": "Laurelhurst Community Center", "ADDRESS": "4554 NE 41st St", "ORIG_ADDRE": "4554 NE 41st St", "PIN": "7613700005", "LANDNO": 767825, "ORDINANCE": 123555, "EFF_DATE": null, "SE_ANNO_CAD_DATA": null }, "geometry": { "type": "Point", "coordinates": [ -122.277920885531785, 47.659158781238922 ] } },
{ "type": "Feature", "properties": { "OBJECTID": 85, "NAME": "Fire Station #6", "ADDRESS": "101 23rd Ave S", "ORIG_ADDRE": "101 23rd Ave S", "PIN": "9826701650", "LANDNO": 767826, "ORDINANCE": 122462, "EFF_DATE": "2007-09-21T08:00:00Z", "SE_ANNO_CAD_DATA": null }, "geometry": { "type": "Point", "coordinates": [ -122.302766615266393, 47.601488373173432 ] } },
{ "type": "Feature", "properties": { "OBJECTID": 86, "NAME": "Fire Station #14", "ADDRESS": "3224 4th Ave S", "ORIG_ADDRE": "3224 4th Ave S", "PIN": "7674800085", "LANDNO": 767827, "ORDINANCE": 122463, "EFF_DATE": "2007-09-21T08:00:00Z", "SE_ANNO_CAD_DATA": null }, "geometry": { "type": "Point", "coordinates": [ -122.328560648442533, 47.574599796701079 ] } },
{ "type": "Feature", "properties": { "OBJECTID": 87, "NAME": "Fire Station #17", "ADDRESS": "1010 NE 50th St", "ORIG_ADDRE": "1010 NE 50th St", "PIN": "6746701655", "LANDNO": 767828, "ORDINANCE": 122465, "EFF_DATE": "2007-09-21T08:00:00Z", "SE_ANNO_CAD_DATA": null }, "geometry": { "type": "Point", "coordinates": [ -122.316762403402109, 47.665157533300636 ] } },
{ "type": "Feature", "properties": { "OBJECTID": 88, "NAME": "Fire Station #41", "ADDRESS": "2416 34th Ave W", "ORIG_ADDRE": "2416 34th Ave W", "PIN": "2225039052", "LANDNO": 767829, "ORDINANCE": 122468, "EFF_DATE": "2007-09-21T08:00:00Z", "SE_ANNO_CAD_DATA": null }, "geometry": { "type": "Point", "coordinates": [ -122.400642042998541, 47.640151861985899 ] } },
{ "type": "Feature", "properties": { "OBJECTID": 89, "NAME": "Supply Laundry Building", "ADDRESS": "1265 Republican St", "ORIG_ADDRE": "1265 Republican St", "PIN": "6849200110", "LANDNO": 767830, "ORDINANCE": 122470, "EFF_DATE": "2007-09-21T08:00:00Z", "SE_ANNO_CAD_DATA": null }, "geometry": { "type": "Point", "coordinates": [ -122.33073930979586, 47.622921327221029 ] } },
{ "type": "Feature", "properties": { "OBJECTID": 90, "NAME": "Wilsonian Apt Bldg Ballroom Gar", "ADDRESS": "4710 University Way NE", "ORIG_ADDRE": "4700-4720 University Way NE", "PIN": "8816400265", "LANDNO": 767831, "ORDINANCE": 0, "EFF_DATE": null, "SE_ANNO_CAD_DATA": null }, "geometry": { "type": "Point", "coordinates": [ -122.312668357392425, 47.663221210590649 ] } },
{ "type": "Feature", "properties": { "OBJECTID": 91, "NAME": "Colman School", "ADDRESS": "2300 S Massachusetts St", "ORIG_ADDRE": "2300 S Massachusetts St", "PIN": "0924049010", "LANDNO": 767832, "ORDINANCE": 122950, "EFF_DATE": "2009-05-15T08:00:00Z", "SE_ANNO_CAD_DATA": null }, "geometry": { "type": "Point", "coordinates": [ -122.301834768482664, 47.58934680556451 ] } },
{ "type": "Feature", "properties": { "OBJECTID": 92, "NAME": "Seattle Yacht Club", "ADDRESS": "1807 E Hamlin St", "ORIG_ADDRE": "1807 E Hamlin St", "PIN": "5605000305", "LANDNO": 767833, "ORDINANCE": 122702, "EFF_DATE": "2008-07-05T08:00:00Z", "SE_ANNO_CAD_DATA": null }, "geometry": { "type": "Point", "coordinates": [ -122.308598962773445, 47.645312808818034 ] } },
{ "type": "Feature", "properties": { "OBJECTID": 93, "NAME": "Medical Dental Building", "ADDRESS": "509 Olive Way", "ORIG_ADDRE": "509 Olive Way", "PIN": "0659000085", "LANDNO": 767834, "ORDINANCE": 122316, "EFF_DATE": "2007-01-20T08:00:00Z", "SE_ANNO_CAD_DATA": null }, "geometry": { "type": "Point", "coordinates": [ -122.336648635744737, 47.612728868038019 ] } },
{ "type": "Feature", "properties": { "OBJECTID": 94, "NAME": "Sigma Kappa Mu Chapter Hse", "ADDRESS": "4510 22nd Ave NE", "ORIG_ADDRE": "4510 22nd Ave NE", "PIN": "1321300090", "LANDNO": 767835, "ORDINANCE": 122469, "EFF_DATE": "2007-09-21T08:00:00Z", "SE_ANNO_CAD_DATA": null }, "geometry": { "type": "Point", "coordinates": [ -122.304425131934892, 47.661601908155482 ] } },
{ "type": "Feature", "properties": { "OBJECTID": 95, "NAME": "Pacific-Ford McKay Bldg", "ADDRESS": "601 Westlake Ave N", "ORIG_ADDRE": "601-605 Westlake Ave N", "PIN": "4088803385", "LANDNO": 767836, "ORDINANCE": 0, "EFF_DATE": null, "SE_ANNO_CAD_DATA": null }, "geometry": { "type": "Point", "coordinates": [ -122.338816880957921, 47.625397999666291 ] } },
{ "type": "Feature", "properties": { "OBJECTID": 96, "NAME": "Harry Whitney Treat House", "ADDRESS": "1 West Highland Dr", "ORIG_ADDRE": "1 West Highland Dr", "PIN": "1731800005", "LANDNO": 767837, "ORDINANCE": 122353, "EFF_DATE": "2007-04-11T08:00:00Z", "SE_ANNO_CAD_DATA": null }, "geometry": { "type": "Point", "coordinates": [ -122.357040889246349, 47.629328585681506 ] } },
{ "type": "Feature", "properties": { "OBJECTID": 97, "NAME": "Leona/Park Ridge Apartments", "ADDRESS": "916 Queen Anne Ave N", "ORIG_ADDRE": "916 Queen Anne Ave N", "PIN": "3879900220", "LANDNO": 767838, "ORDINANCE": 122818, "EFF_DATE": "2008-11-07T08:00:00Z", "SE_ANNO_CAD_DATA": null }, "geometry": { "type": "Point", "coordinates": [ -122.356162527703731, 47.62778080557716 ] } },
{ "type": "Feature", "properties": { "OBJECTID": 98, "NAME": "Windham Apartments", "ADDRESS": "420 Blanchard St", "ORIG_ADDRE": "420 Blanchard St", "PIN": "0696000135", "LANDNO": 767839, "ORDINANCE": 122595, "EFF_DATE": "2008-01-12T08:00:00Z", "SE_ANNO_CAD_DATA": null }, "geometry": { "type": "Point", "coordinates": [ -122.34223565792621, 47.615134982045859 ] } },
{ "type": "Feature", "properties": { "OBJECTID": 99, "NAME": "Hamilton Middle School", "ADDRESS": "1610 N 41st St", "ORIG_ADDRE": "1610 N 41st St", "PIN": "4083301505", "LANDNO": 767840, "ORDINANCE": 0, "EFF_DATE": null, "SE_ANNO_CAD_DATA": null }, "geometry": { "type": "Point", "coordinates": [ -122.338033173737301, 47.657082463270385 ] } },
{ "type": "Feature", "properties": { "OBJECTID": 100, "NAME": "Eitel Building", "ADDRESS": "1501 2nd Ave", "ORIG_ADDRE": "1501 Second Ave", "PIN": "1975700645", "LANDNO": 767841, "ORDINANCE": 123534, "EFF_DATE": null, "SE_ANNO_CAD_DATA": null }, "geometry": { "type": "Point", "coordinates": [ -122.339375308456752, 47.609431578017485 ] } },
{ "type": "Feature", "properties": { "OBJECTID": 101, "NAME": "Seattle Japanese Language School", "ADDRESS": "1414 S Weller St", "ORIG_ADDRE": "1414 S Weller St", "PIN": "3320500190", "LANDNO": 767842, "ORDINANCE": 125743, "EFF_DATE": null, "SE_ANNO_CAD_DATA": null }, "geometry": { "type": "Point", "coordinates": [ -122.312000304307702, 47.597740326854783 ] } },
{ "type": "Feature", "properties": { "OBJECTID": 102, "NAME": "Seattle-First National Bank", "ADDRESS": "566 Denny Way", "ORIG_ADDRE": "566 Denny Way", "PIN": "1991200580", "LANDNO": 767843, "ORDINANCE": 0, "EFF_DATE": null, "SE_ANNO_CAD_DATA": null }, "geometry": { "type": "Point", "coordinates": [ -122.345498308213891, 47.618836027584479 ] } },
{ "type": "Feature", "properties": { "OBJECTID": 103, "NAME": "Dearborn House", "ADDRESS": "1117 Minor Ave", "ORIG_ADDRE": "1117 Minor Ave", "PIN": "1978200550", "LANDNO": 767844, "ORDINANCE": 122951, "EFF_DATE": "2009-05-15T08:00:00Z", "SE_ANNO_CAD_DATA": null }, "geometry": { "type": "Point", "coordinates": [ -122.325486183154155, 47.610897688542956 ] } },
{ "type": "Feature", "properties": { "OBJECTID": 104, "NAME": "Fitch/Nutt House", "ADDRESS": "4401 Phinney Ave N", "ORIG_ADDRE": "4401 Phinney Ave N", "PIN": "8129700070", "LANDNO": 767845, "ORDINANCE": 0, "EFF_DATE": null, "SE_ANNO_CAD_DATA": null }, "geometry": { "type": "Point", "coordinates": [ -122.354640788187481, 47.660367823418049 ] } },
{ "type": "Feature", "properties": { "OBJECTID": 105, "NAME": "Pier 55", "ADDRESS": "1101 Alaskan Way", "ORIG_ADDRE": "1101 Alaskan Way", "PIN": "7666202485", "LANDNO": 767846, "ORDINANCE": 123860, "EFF_DATE": null, "SE_ANNO_CAD_DATA": null }, "geometry": { "type": "Point", "coordinates": [ -122.33999723749622, 47.604762269473838 ] } },
{ "type": "Feature", "properties": { "OBJECTID": 106, "NAME": "Pier 56", "ADDRESS": "1201 Alaskan Way", "ORIG_ADDRE": "1201 Alaskan Way", "PIN": "7666202485", "LANDNO": 767847, "ORDINANCE": 123858, "EFF_DATE": null, "SE_ANNO_CAD_DATA": null }, "geometry": { "type": "Point", "coordinates": [ -122.340589881987697, 47.605446527460749 ] } },
{ "type": "Feature", "properties": { "OBJECTID": 107, "NAME": "Pier 57", "ADDRESS": "1301 Alaskan Way", "ORIG_ADDRE": "1301 Alaskan Way", "PIN": "7666202435", "LANDNO": 767848, "ORDINANCE": 123861, "EFF_DATE": null, "SE_ANNO_CAD_DATA": null }, "geometry": { "type": "Point", "coordinates": [ -122.341155897255831, 47.606054766843009 ] } },
{ "type": "Feature", "properties": { "OBJECTID": 108, "NAME": "Pier 54", "ADDRESS": "1001 Alaskan Way", "ORIG_ADDRE": "1001 Alaskan Way", "PIN": "7666202495", "LANDNO": 767849, "ORDINANCE": 123859, "EFF_DATE": null, "SE_ANNO_CAD_DATA": null }, "geometry": { "type": "Point", "coordinates": [ -122.33941690247336, 47.604118312704351 ] } },
{ "type": "Feature", "properties": { "OBJECTID": 109, "NAME": "Norton Building", "ADDRESS": "801 2ND AVE", "ORIG_ADDRE": "801 2ND AVE", "PIN": "0939000355", "LANDNO": 767850, "ORDINANCE": 122947, "EFF_DATE": "2009-05-15T08:00:00Z", "SE_ANNO_CAD_DATA": null }, "geometry": { "type": "Point", "coordinates": [ -122.334467445084684, 47.603696422995903 ] } },
{ "type": "Feature", "properties": { "OBJECTID": 110, "NAME": "John B Allen School", "ADDRESS": "6532 Phinney Ave N", "ORIG_ADDRE": "6532 Phinney Ave NW", "PIN": "0625049063", "LANDNO": 767851, "ORDINANCE": 123845, "EFF_DATE": null, "SE_ANNO_CAD_DATA": null }, "geometry": { "type": "Point", "coordinates": [ -122.353465923567768, 47.67744296817731 ] } },
{ "type": "Feature", "properties": { "OBJECTID": 111, "NAME": "Bon Marche Stables", "ADDRESS": "2315 Western Ave", "ORIG_ADDRE": "2315 Western Ave", "PIN": "0654000330", "LANDNO": 767852, "ORDINANCE": 122995, "EFF_DATE": "2009-07-04T08:00:00Z", "SE_ANNO_CAD_DATA": null }, "geometry": { "type": "Point", "coordinates": [ -122.3481752472821, 47.612852218382706 ] } },
{ "type": "Feature", "properties": { "OBJECTID": 112, "NAME": "Terminal Sales Annex", "ADDRESS": "1931 Second Ave", "ORIG_ADDRE": "1931 Second Ave", "PIN": "1977200926", "LANDNO": 767853, "ORDINANCE": 122981, "EFF_DATE": "2009-06-25T08:00:00Z", "SE_ANNO_CAD_DATA": null }, "geometry": { "type": "Point", "coordinates": [ -122.341673048953623, 47.611437710207412 ] } },
{ "type": "Feature", "properties": { "OBJECTID": 113, "NAME": "Washington Athletic Club", "ADDRESS": "1325 Sixth Ave", "ORIG_ADDRE": "1325 Sixth Ave", "PIN": "1975700025", "LANDNO": 767854, "ORDINANCE": 122948, "EFF_DATE": "2009-05-15T08:00:00Z", "SE_ANNO_CAD_DATA": null }, "geometry": { "type": "Point", "coordinates": [ -122.333790120530452, 47.609680052862949 ] } },
{ "type": "Feature", "properties": { "OBJECTID": 114, "NAME": "Women's University Club", "ADDRESS": "1105 6th Ave", "ORIG_ADDRE": "1105 6th Ave", "PIN": "0942000255", "LANDNO": 767855, "ORDINANCE": 122949, "EFF_DATE": "2009-05-15T08:00:00Z", "SE_ANNO_CAD_DATA": null }, "geometry": { "type": "Point", "coordinates": [ -122.331874931129704, 47.607818061177426 ] } },
{ "type": "Feature", "properties": { "OBJECTID": 115, "NAME": "Central Building", "ADDRESS": "810 Third Ave", "ORIG_ADDRE": "810 Third Ave", "PIN": "0942000550", "LANDNO": 767856, "ORDINANCE": 122952, "EFF_DATE": "2009-05-15T08:00:00Z", "SE_ANNO_CAD_DATA": null }, "geometry": { "type": "Point", "coordinates": [ -122.332609471032782, 47.604713229499922 ] } },
{ "type": "Feature", "properties": { "OBJECTID": 116, "NAME": "Terry Avenue Building", "ADDRESS": "320 Terry Ave N", "ORIG_ADDRE": "320 Terry Ave N", "PIN": "1986200450", "LANDNO": 767857, "ORDINANCE": 123486, "EFF_DATE": null, "SE_ANNO_CAD_DATA": null }, "geometry": { "type": "Point", "coordinates": [ -122.336784839150937, 47.621507069408025 ] } },
{ "type": "Feature", "properties": { "OBJECTID": 117, "NAME": "Seattle Japanese Garden", "ADDRESS": "1075 Lake Washington Blvd E", "ORIG_ADDRE": "1075 Lake Washington Blvd E", "PIN": "2125049044", "LANDNO": 767858, "ORDINANCE": 0, "EFF_DATE": null, "SE_ANNO_CAD_DATA": null }, "geometry": { "type": "Point", "coordinates": [ -122.29656800999706, 47.629371583407099 ] } },
{ "type": "Feature", "properties": { "OBJECTID": 118, "NAME": "Metropolitan Press Printing Co/Brasa Bldg", "ADDRESS": "2107 3RD Ave", "ORIG_ADDRE": "2107 Third Avenue", "PIN": "1977201190", "LANDNO": 767859, "ORDINANCE": 124550, "EFF_DATE": null, "SE_ANNO_CAD_DATA": null }, "geometry": { "type": "Point", "coordinates": [ -122.342837178234817, 47.613182962512873 ] } },
{ "type": "Feature", "properties": { "OBJECTID": 119, "NAME": "Coca Cola Bottling Plant", "ADDRESS": "1313 E Columbia St", "ORIG_ADDRE": "1313 E Columbia St", "PIN": "2254500880", "LANDNO": 767860, "ORDINANCE": 123294, "EFF_DATE": null, "SE_ANNO_CAD_DATA": null }, "geometry": { "type": "Point", "coordinates": [ -122.314505737266032, 47.608910153452186 ] } },
{ "type": "Feature", "properties": { "OBJECTID": 120, "NAME": "Fischer Studio Building", "ADDRESS": "1519 3RD AVE", "ORIG_ADDRE": "1519 3RD AVE", "PIN": "2568000000", "LANDNO": 767861, "ORDINANCE": 123382, "EFF_DATE": null, "SE_ANNO_CAD_DATA": null }, "geometry": { "type": "Point", "coordinates": [ -122.338587598401887, 47.610191726053294 ] } },
{ "type": "Feature", "properties": { "OBJECTID": 121, "NAME": "Dr Annie Russell House", "ADDRESS": "5721 8th Ave NE", "ORIG_ADDRE": "5721 8th Ave NE", "PIN": "1928300398", "LANDNO": 767862, "ORDINANCE": 123074, "EFF_DATE": "2009-09-19T08:00:00Z", "SE_ANNO_CAD_DATA": null }, "geometry": { "type": "Point", "coordinates": [ -122.320532587244401, 47.670622005125907 ] } },
{ "type": "Feature", "properties": { "OBJECTID": 122, "NAME": "MGM Building", "ADDRESS": "2331 2nd Ave", "ORIG_ADDRE": "2331 Second Avenue", "PIN": "0655000045", "LANDNO": 767863, "ORDINANCE": 123290, "EFF_DATE": null, "SE_ANNO_CAD_DATA": null }, "geometry": { "type": "Point", "coordinates": [ -122.347034619585514, 47.614525654493782 ] } },
{ "type": "Feature", "properties": { "OBJECTID": 123, "NAME": "Securities Building", "ADDRESS": "1904 Third Ave", "ORIG_ADDRE": "1904 Third Ave", "PIN": "1977201315", "LANDNO": 767864, "ORDINANCE": 123204, "EFF_DATE": "2010-01-20T08:00:00Z", "SE_ANNO_CAD_DATA": null }, "geometry": { "type": "Point", "coordinates": [ -122.339359634940962, 47.612081482435947 ] } },
{ "type": "Feature", "properties": { "OBJECTID": 124, "NAME": "Seattle Labor Temple", "ADDRESS": "2800 First Ave", "ORIG_ADDRE": "2800 First Ave", "PIN": "0654000005", "LANDNO": 767865, "ORDINANCE": 123345, "EFF_DATE": null, "SE_ANNO_CAD_DATA": null }, "geometry": { "type": "Point", "coordinates": [ -122.351768662107474, 47.616836487406893 ] } },
{ "type": "Feature", "properties": { "OBJECTID": 125, "NAME": "Washington Hall", "ADDRESS": "153 14th Ave", "ORIG_ADDRE": "153 14th Ave", "PIN": "4226900030", "LANDNO": 767866, "ORDINANCE": 123346, "EFF_DATE": null, "SE_ANNO_CAD_DATA": null }, "geometry": { "type": "Point", "coordinates": [ -122.314591395847671, 47.602848556313624 ] } },
{ "type": "Feature", "properties": { "OBJECTID": 126, "NAME": "Lake City School", "ADDRESS": "2611 NE 125th St", "ORIG_ADDRE": "2611 NE 125th St", "PIN": "2826049043", "LANDNO": 767867, "ORDINANCE": 0, "EFF_DATE": null, "SE_ANNO_CAD_DATA": null }, "geometry": { "type": "Point", "coordinates": [ -122.299672202754508, 47.718997241430422 ] } },
{ "type": "Feature", "properties": { "OBJECTID": 127, "NAME": "Naval Reserve Armory", "ADDRESS": "860 Terry Ave N", "ORIG_ADDRE": "860 Terry Ave N", "PIN": "4088803210", "LANDNO": 767868, "ORDINANCE": 123428, "EFF_DATE": null, "SE_ANNO_CAD_DATA": null }, "geometry": { "type": "Point", "coordinates": [ -122.33661095956505, 47.627598502199717 ] } },
{ "type": "Feature", "properties": { "OBJECTID": 128, "NAME": "William Tell Hotel", "ADDRESS": "2327 2nd Ave", "ORIG_ADDRE": "2327 2nd Ave", "PIN": "0655000050", "LANDNO": 767869, "ORDINANCE": 123203, "EFF_DATE": "2010-01-20T08:00:00Z", "SE_ANNO_CAD_DATA": null }, "geometry": { "type": "Point", "coordinates": [ -122.346843283922809, 47.614383478724562 ] } },
{ "type": "Feature", "properties": { "OBJECTID": 129, "NAME": "Egan House", "ADDRESS": "1500 Lakeview Blvd E", "ORIG_ADDRE": "1500 Lakeview Boulevard East", "PIN": "2025049049", "LANDNO": 767870, "ORDINANCE": 123295, "EFF_DATE": null, "SE_ANNO_CAD_DATA": null }, "geometry": { "type": "Point", "coordinates": [ -122.322571206362767, 47.632399534823762 ] } },
{ "type": "Feature", "properties": { "OBJECTID": 130, "NAME": "Donahoe Building / Bergman Luggage", "ADDRESS": "1901 - 1911 3rd Avenue", "ORIG_ADDRE": null, "PIN": null, "LANDNO": 767871, "ORDINANCE": null, "EFF_DATE": null, "SE_ANNO_CAD_DATA": null }, "geometry": { "type": "Point", "coordinates": [ -122.340164507631215, 47.611665580932446 ] } },
{ "type": "Feature", "properties": { "OBJECTID": 131, "NAME": "Turner-Koepf House / Beacon Hill Garden House", "ADDRESS": "2336 15th Avenue South", "ORIG_ADDRE": null, "PIN": null, "LANDNO": 767872, "ORDINANCE": null, "EFF_DATE": null, "SE_ANNO_CAD_DATA": null }, "geometry": { "type": "Point", "coordinates": [ -122.313107084690614, 47.58179144363482 ] } },
{ "type": "Feature", "properties": { "OBJECTID": 132, "NAME": "Volunteer Park Grounds", "ADDRESS": "1400 E Prospect St", "ORIG_ADDRE": "1400 E Prospect St", "PIN": "2925049087", "LANDNO": 767873, "ORDINANCE": 0, "EFF_DATE": null, "SE_ANNO_CAD_DATA": null }, "geometry": { "type": "Point", "coordinates": [ -122.315975163492098, 47.628677159969293 ] } },
{ "type": "Feature", "properties": { "OBJECTID": 133, "NAME": "Volunteer Park Grounds", "ADDRESS": "1400 E Prospect St", "ORIG_ADDRE": "1400 E Prospect St", "PIN": "2925049087", "LANDNO": 767874, "ORDINANCE": 0, "EFF_DATE": null, "SE_ANNO_CAD_DATA": null }, "geometry": { "type": "Point", "coordinates": [ -122.313226725016577, 47.628605817085393 ] } },
{ "type": "Feature", "properties": { "OBJECTID": 134, "NAME": "Volunteer Park Grounds", "ADDRESS": "1400 E Prospect St", "ORIG_ADDRE": "1400 E Prospect St", "PIN": "2925049087", "LANDNO": 767875, "ORDINANCE": 0, "EFF_DATE": null, "SE_ANNO_CAD_DATA": null }, "geometry": { "type": "Point", "coordinates": [ -122.312842530246826, 47.629210622718944 ] } },
{ "type": "Feature", "properties": { "OBJECTID": 135, "NAME": "Volunteer Park Grounds", "ADDRESS": "1400 E Prospect St", "ORIG_ADDRE": "1400 E Prospect St", "PIN": "2925049087", "LANDNO": 767876, "ORDINANCE": 0, "EFF_DATE": null, "SE_ANNO_CAD_DATA": null }, "geometry": { "type": "Point", "coordinates": [ -122.312858568209506, 47.630145834519887 ] } },
{ "type": "Feature", "properties": { "OBJECTID": 136, "NAME": "Volunteer Park Grounds", "ADDRESS": "1400 E Prospect St", "ORIG_ADDRE": "1400 E Prospect St", "PIN": "2925049087", "LANDNO": 767877, "ORDINANCE": 125215, "EFF_DATE": null, "SE_ANNO_CAD_DATA": null }, "geometry": { "type": "Point", "coordinates": [ -122.312845567248829, 47.631174251446815 ] } },
{ "type": "Feature", "properties": { "OBJECTID": 137, "NAME": "Volunteer Park Grounds", "ADDRESS": "1400 E Prospect St", "ORIG_ADDRE": "1400 E Prospect St", "PIN": "2925049087", "LANDNO": 767878, "ORDINANCE": 0, "EFF_DATE": null, "SE_ANNO_CAD_DATA": null }, "geometry": { "type": "Point", "coordinates": [ -122.312852670339765, 47.632166704078777 ] } },
{ "type": "Feature", "properties": { "OBJECTID": 138, "NAME": "Volunteer Park Grounds", "ADDRESS": "1400 E Prospect St", "ORIG_ADDRE": "1400 E Prospect St", "PIN": "2925049087", "LANDNO": 767879, "ORDINANCE": 0, "EFF_DATE": null, "SE_ANNO_CAD_DATA": null }, "geometry": { "type": "Point", "coordinates": [ -122.314579926620425, 47.628645340613424 ] } },
{ "type": "Feature", "properties": { "OBJECTID": 139, "NAME": "Daniel Bagley Elementary School", "ADDRESS": "7821 Stone Ave N", "ORIG_ADDRE": "7821 / 7901 Stone Ave N", "PIN": "0625049048", "LANDNO": 767880, "ORDINANCE": 0, "EFF_DATE": "2015-05-06T08:00:00Z", "SE_ANNO_CAD_DATA": null }, "geometry": { "type": "Point", "coordinates": [ -122.342306983083958, 47.686356566655753 ] } },
{ "type": "Feature", "properties": { "OBJECTID": 140, "NAME": "Daniel Webster Elementary School", "ADDRESS": "3014 NW 67th St", "ORIG_ADDRE": "3014 NW 67th St", "PIN": "3693901110", "LANDNO": 767881, "ORDINANCE": 0, "EFF_DATE": "2015-05-06T08:00:00Z", "SE_ANNO_CAD_DATA": null }, "geometry": { "type": "Point", "coordinates": [ -122.396312000311838, 47.677672401178178 ] } },
{ "type": "Feature", "properties": { "OBJECTID": 141, "NAME": "Magnolia School", "ADDRESS": "2418 28th Ave W", "ORIG_ADDRE": "2418 28th Ave W", "PIN": "0269001275", "LANDNO": 767882, "ORDINANCE": 0, "EFF_DATE": "2015-06-03T08:00:00Z", "SE_ANNO_CAD_DATA": null }, "geometry": { "type": "Point", "coordinates": [ -122.392623573756623, 47.64060611830719 ] } },
{ "type": "Feature", "properties": { "OBJECTID": 142, "NAME": "E.C. Hughes School", "ADDRESS": "7740 34th Ave SW", "ORIG_ADDRE": "7740 34th Ave SW", "PIN": "1932300245", "LANDNO": 767883, "ORDINANCE": 0, "EFF_DATE": "2015-06-03T08:00:00Z", "SE_ANNO_CAD_DATA": null }, "geometry": { "type": "Point", "coordinates": [ -122.374927418228452, 47.53283765937443 ] } },
{ "type": "Feature", "properties": { "OBJECTID": 143, "NAME": "Kobe Bell", "ADDRESS": "210 Republican St", "ORIG_ADDRE": "305 Harrison Street", "PIN": "1988200440", "LANDNO": 767884, "ORDINANCE": 123297, "EFF_DATE": "2010-06-12T08:00:00Z", "SE_ANNO_CAD_DATA": null }, "geometry": { "type": "Point", "coordinates": [ -122.352244311679513, 47.623483563730318 ] } },
{ "type": "Feature", "properties": { "OBJECTID": 144, "NAME": "Seattle Center House", "ADDRESS": "305 Harrison Street", "ORIG_ADDRE": "305 Harrison Street", "PIN": "1985200305", "LANDNO": 767885, "ORDINANCE": 123298, "EFF_DATE": "2010-06-12T08:00:00Z", "SE_ANNO_CAD_DATA": null }, "geometry": { "type": "Point", "coordinates": [ -122.350858395014583, 47.621411854072946 ] } },
{ "type": "Feature", "properties": { "OBJECTID": 145, "NAME": "Wayne Apartments", "ADDRESS": "2224 2nd Ave", "ORIG_ADDRE": "2224 Second Ave", "PIN": "0694000030", "LANDNO": 767886, "ORDINANCE": 0, "EFF_DATE": "1899-12-30T08:00:00Z", "SE_ANNO_CAD_DATA": null }, "geometry": { "type": "Point", "coordinates": [ -122.34508278254107, 47.613969856971359 ] } },
{ "type": "Feature", "properties": { "OBJECTID": 146, "NAME": "Gaslight Inn / Singerman House", "ADDRESS": "1727 15th Ave", "ORIG_ADDRE": "1727 15th Ave", "PIN": "1728800145", "LANDNO": 767887, "ORDINANCE": 125126, "EFF_DATE": "1899-12-30T08:00:00Z", "SE_ANNO_CAD_DATA": null }, "geometry": { "type": "Point", "coordinates": [ -122.313055663953932, 47.617281988791675 ] } },
{ "type": "Feature", "properties": { "OBJECTID": 147, "NAME": "J.W. Bullock House", "ADDRESS": "1220 10th Ave E", "ORIG_ADDRE": "1220 10th Ave E", "PIN": "6762700745", "LANDNO": 767888, "ORDINANCE": 125127, "EFF_DATE": "1899-12-30T08:00:00Z", "SE_ANNO_CAD_DATA": null }, "geometry": { "type": "Point", "coordinates": [ -122.319832084787095, 47.631134587074868 ] } },
{ "type": "Feature", "properties": { "OBJECTID": 148, "NAME": "Lincoln High School", "ADDRESS": "4400 Interlake Ave N", "ORIG_ADDRE": "4400 Interlake Ave N", "PIN": "7821200700", "LANDNO": 767889, "ORDINANCE": 0, "EFF_DATE": "1899-12-30T08:00:00Z", "SE_ANNO_CAD_DATA": null }, "geometry": { "type": "Point", "coordinates": [ -122.339622428899375, 47.659961772399932 ] } },
{ "type": "Feature", "properties": { "OBJECTID": 149, "NAME": "Federal Reserve Bank of San Francisco", "ADDRESS": "1015 2nd Ave", "ORIG_ADDRE": "1015 Second Avenue", "PIN": "0939000520", "LANDNO": 767890, "ORDINANCE": 0, "EFF_DATE": "2016-01-20T08:00:00Z", "SE_ANNO_CAD_DATA": null }, "geometry": { "type": "Point", "coordinates": [ -122.33588476877793, 47.605422444575211 ] } },
{ "type": "Feature", "properties": { "OBJECTID": 150, "NAME": "Pacific Telephone & Telegraph Garfield Exchange", "ADDRESS": "1529 4th Ave W", "ORIG_ADDRE": "1529 4th Avenue W", "PIN": "4232903170", "LANDNO": 767891, "ORDINANCE": 125214, "EFF_DATE": "1899-12-30T08:00:00Z", "SE_ANNO_CAD_DATA": null }, "geometry": { "type": "Point", "coordinates": [ -122.362943021223799, 47.633186632638981 ] } },
{ "type": "Feature", "properties": { "OBJECTID": 151, "NAME": "Firestone Auto Supply and Service", "ADDRESS": "400 Westlake Ave N", "ORIG_ADDRE": "400 Westlake Ave", "PIN": "1983200230", "LANDNO": 767892, "ORDINANCE": 0, "EFF_DATE": "1899-12-30T08:00:00Z", "SE_ANNO_CAD_DATA": null }, "geometry": { "type": "Point", "coordinates": [ -122.338047018119227, 47.622374082016073 ] } },
{ "type": "Feature", "properties": { "OBJECTID": 152, "NAME": "Seattle City Light Power Control Center / System Operations", "ADDRESS": "157 Roy St", "ORIG_ADDRE": "157 Roy St", "PIN": "5457300580", "LANDNO": 767893, "ORDINANCE": 125321, "EFF_DATE": "1899-12-30T08:00:00Z", "SE_ANNO_CAD_DATA": null }, "geometry": { "type": "Point", "coordinates": [ -122.353839247236763, 47.625192065083993 ] } },
{ "type": "Feature", "properties": { "OBJECTID": 153, "NAME": "Mama's Mexican Kitchen Building", "ADDRESS": "2234 2nd Ave", "ORIG_ADDRE": "2234 Second Avenue", "PIN": "0694000035", "LANDNO": 767894, "ORDINANCE": 0, "EFF_DATE": "1899-12-30T08:00:00Z", "SE_ANNO_CAD_DATA": null }, "geometry": { "type": "Point", "coordinates": [ -122.345326461980903, 47.614031216337558 ] } },
{ "type": "Feature", "properties": { "OBJECTID": 154, "NAME": "Crescent-Hamm Building", "ADDRESS": "4302 SW Alaska St", "ORIG_ADDRE": "4302 SW Alaska St / 4559 California Ave SW", "PIN": "3389900115", "LANDNO": 767895, "ORDINANCE": 125522, "EFF_DATE": "1899-12-30T08:00:00Z", "SE_ANNO_CAD_DATA": null }, "geometry": { "type": "Point", "coordinates": [ -122.387134448186274, 47.561264735220327 ] } },
{ "type": "Feature", "properties": { "OBJECTID": 155, "NAME": "Eldridge Tire Company Building", "ADDRESS": "1519 Broadway", "ORIG_ADDRE": "1519 Broadway", "PIN": "6003000510", "LANDNO": 767896, "ORDINANCE": 125624, "EFF_DATE": "1899-12-30T08:00:00Z", "SE_ANNO_CAD_DATA": null }, "geometry": { "type": "Point", "coordinates": [ -122.321193982170385, 47.614576577295871 ] } },
{ "type": "Feature", "properties": { "OBJECTID": 156, "NAME": "Campbell Building", "ADDRESS": "4554 California Ave SW", "ORIG_ADDRE": "4554 California Ave SW", "PIN": "0952006375", "LANDNO": 767897, "ORDINANCE": 125486, "EFF_DATE": "1899-12-30T08:00:00Z", "SE_ANNO_CAD_DATA": null }, "geometry": { "type": "Point", "coordinates": [ -122.386382406508204, 47.561234438313051 ] } },
{ "type": "Feature", "properties": { "OBJECTID": 157, "NAME": "Bleitz Funeral Home", "ADDRESS": "316 Florentia St", "ORIG_ADDRE": "316 Florentia Street", "PIN": "1973200006", "LANDNO": 767898, "ORDINANCE": 126017, "EFF_DATE": "1899-12-30T08:00:00Z", "SE_ANNO_CAD_DATA": null }, "geometry": { "type": "Point", "coordinates": [ -122.350479639950123, 47.647091612647337 ] } },
{ "type": "Feature", "properties": { "OBJECTID": 158, "NAME": "Shannon and Wilson Office Building", "ADDRESS": "3652-3670 Woodland Park Ave N", "ORIG_ADDRE": "3652-3670 Woodland Park Ave N/1101-1111 N 38th St", "PIN": "2261500090", "LANDNO": 767899, "ORDINANCE": 125623, "EFF_DATE": "2017-07-19T08:00:00Z", "SE_ANNO_CAD_DATA": null }, "geometry": { "type": "Point", "coordinates": [ -122.343620828174267, 47.652442951485696 ] } },
{ "type": "Feature", "properties": { "OBJECTID": 159, "NAME": "Century 21 Coliseum / Key Arena", "ADDRESS": "305 Harrison St", "ORIG_ADDRE": "305 Harrison St", "PIN": "1985200003", "LANDNO": 767900, "ORDINANCE": 125642, "EFF_DATE": "2017-08-03T08:00:00Z", "SE_ANNO_CAD_DATA": null }, "geometry": { "type": "Point", "coordinates": [ -122.353981716007141, 47.622079264280785 ] } },
{ "type": "Feature", "properties": { "OBJECTID": 160, "NAME": "Bressi Garage", "ADDRESS": "226 First Ave N", "ORIG_ADDRE": "226-232 First Ave N", "PIN": "1989201515", "LANDNO": 767901, "ORDINANCE": 125643, "EFF_DATE": "2017-08-03T08:00:00Z", "SE_ANNO_CAD_DATA": null }, "geometry": { "type": "Point", "coordinates": [ -122.355170279482692, 47.620771146656423 ] } },
{ "type": "Feature", "properties": { "OBJECTID": 161, "NAME": "American Meter and Appliance Building", "ADDRESS": "1001 Westlake Ave N", "ORIG_ADDRE": "1001-1005 Westlake Ave N", "PIN": "1989201515", "LANDNO": 767902, "ORDINANCE": 0, "EFF_DATE": "2017-05-16T08:00:00Z", "SE_ANNO_CAD_DATA": null }, "geometry": { "type": "Point", "coordinates": [ -122.340730862434739, 47.6282309843033 ] } },
{ "type": "Feature", "properties": { "OBJECTID": 162, "NAME": "Pacific Architect and Builder", "ADDRESS": "1945 Yale Pl E", "ORIG_ADDRE": "1945 Yale Pl E", "PIN": "2025049033", "LANDNO": 767903, "ORDINANCE": 125523, "EFF_DATE": "2017-07-20T08:00:00Z", "SE_ANNO_CAD_DATA": null }, "geometry": { "type": "Point", "coordinates": [ -122.327369965247357, 47.636460216657937 ] } },
{ "type": "Feature", "properties": { "OBJECTID": 163, "NAME": "Sheridan Apartments", "ADDRESS": "2011 Fifth Ave", "ORIG_ADDRE": "2011 Fifth Ave", "PIN": "0659001015", "LANDNO": 767904, "ORDINANCE": 0, "EFF_DATE": "2017-07-18T08:00:00Z", "SE_ANNO_CAD_DATA": null }, "geometry": { "type": "Point", "coordinates": [ -122.339829695922248, 47.613737629136814 ] } },
{ "type": "Feature", "properties": { "OBJECTID": 164, "NAME": "Griffin Building", "ADDRESS": "2005 Fifth Ave", "ORIG_ADDRE": "2005 Fifth Ave", "PIN": "0659001020", "LANDNO": 767905, "ORDINANCE": 0, "EFF_DATE": "2017-07-18T08:00:00Z", "SE_ANNO_CAD_DATA": null }, "geometry": { "type": "Point", "coordinates": [ -122.339593810262073, 47.613615625297022 ] } },
{ "type": "Feature", "properties": { "OBJECTID": 165, "NAME": "Broad St Substation", "ADDRESS": "319 6th Ave N", "ORIG_ADDRE": "319 6th Ave N", "PIN": "1991200405", "LANDNO": 767906, "ORDINANCE": 125783, "EFF_DATE": "1899-12-30T08:00:00Z", "SE_ANNO_CAD_DATA": null }, "geometry": { "type": "Point", "coordinates": [ -122.345758478342461, 47.621809117542533 ] } },
{ "type": "Feature", "properties": { "OBJECTID": 166, "NAME": "Mount Zion Baptist Church", "ADDRESS": "1634 Reverend Dr. S. McKinney Ave", "ORIG_ADDRE": "1634 Reverend Dr. S. McKinney Ave", "PIN": "7228501980", "LANDNO": 767907, "ORDINANCE": 125591, "EFF_DATE": "1899-12-30T08:00:00Z", "SE_ANNO_CAD_DATA": null }, "geometry": { "type": "Point", "coordinates": [ -122.307056253154485, 47.616446439544632 ] } },
{ "type": "Feature", "properties": { "OBJECTID": 167, "NAME": "White Garage", "ADDRESS": "1915 3rd Ave", "ORIG_ADDRE": "1915 3rd Ave", "PIN": "1977201055", "LANDNO": 767908, "ORDINANCE": 0, "EFF_DATE": "1899-12-30T08:00:00Z", "SE_ANNO_CAD_DATA": null }, "geometry": { "type": "Point", "coordinates": [ -122.340402834207651, 47.611790366010524 ] } },
{ "type": "Feature", "properties": { "OBJECTID": 168, "NAME": "UW Canoe House/ASUW Shell House/US Naval Training Hangar", "ADDRESS": "3655 Walla Walla Rd NE", "ORIG_ADDRE": "3655 Walla Walla Rd NE", "PIN": "162504HYDR", "LANDNO": 767909, "ORDINANCE": 125742, "EFF_DATE": "1899-12-30T08:00:00Z", "SE_ANNO_CAD_DATA": null }, "geometry": { "type": "Point", "coordinates": [ -122.299895180215174, 47.648624723137708 ] } },
{ "type": "Feature", "properties": { "OBJECTID": 169, "NAME": "East Pine Substation", "ADDRESS": "1501 23rd Ave", "ORIG_ADDRE": "1501 23rd Ave", "PIN": "7228500465", "LANDNO": 767910, "ORDINANCE": 0, "EFF_DATE": "1899-12-30T08:00:00Z", "SE_ANNO_CAD_DATA": null }, "geometry": { "type": "Point", "coordinates": [ -122.302884233341373, 47.61457202859318 ] } },
{ "type": "Feature", "properties": { "OBJECTID": 170, "NAME": "Highland Apartments", "ADDRESS": "931 11TH AVE E", "ORIG_ADDRE": "931 11TH AVE E", "PIN": "3295200000", "LANDNO": 767911, "ORDINANCE": 126016, "EFF_DATE": "1899-12-30T08:00:00Z", "SE_ANNO_CAD_DATA": null }, "geometry": { "type": "Point", "coordinates": [ -122.318290419290435, 47.627672997972738 ] } },
{ "type": "Feature", "properties": { "OBJECTID": 171, "NAME": "Mount Baker Community Club Clubhouse", "ADDRESS": "2815 Mount Rainier Dr S", "ORIG_ADDRE": "2811-2815 Mount Rainier Drive South", "PIN": "5700002390", "LANDNO": 767912, "ORDINANCE": 125837, "EFF_DATE": "2018-09-06T08:00:00Z", "SE_ANNO_CAD_DATA": null }, "geometry": { "type": "Point", "coordinates": [ -122.287994761478913, 47.577879463513973 ] } },
{ "type": "Feature", "properties": { "OBJECTID": 172, "NAME": "Bricklayers Building", "ADDRESS": "318 Fairview Ave N", "ORIG_ADDRE": "318 Fairview Avenue North", "PIN": "2467400080", "LANDNO": 767913, "ORDINANCE": 0, "EFF_DATE": "1899-12-30T08:00:00Z", "SE_ANNO_CAD_DATA": null }, "geometry": { "type": "Point", "coordinates": [ -122.333774665334573, 47.621296947237632 ] } },
{ "type": "Feature", "properties": { "OBJECTID": 173, "NAME": "Roy Vue Apartments", "ADDRESS": "615 Bellevue Ave East", "ORIG_ADDRE": "615 Bellevue Avenue East", "PIN": "6848200030", "LANDNO": 767914, "ORDINANCE": 126146, "EFF_DATE": "1899-12-30T08:00:00Z", "SE_ANNO_CAD_DATA": null }, "geometry": { "type": "Point", "coordinates": [ -122.326843810716113, 47.624782207645985 ] } },
{ "type": "Feature", "properties": { "OBJECTID": 174, "NAME": "First United Methodist Church (former)", "ADDRESS": "811 5th Ave", "ORIG_ADDRE": "811 5th Ave", "PIN": "0942000530", "LANDNO": 767915, "ORDINANCE": 123291, "EFF_DATE": null, "SE_ANNO_CAD_DATA": null }, "geometry": { "type": "Point", "coordinates": [ -122.331274362530351, 47.605479650949185 ] } },
{ "type": "Feature", "properties": { "OBJECTID": 175, "NAME": "Seventh Church of Christ (former)", "ADDRESS": "2555 8th Ave W", "ORIG_ADDRE": "2555 8th Ave W", "PIN": "2425039014", "LANDNO": 767916, "ORDINANCE": 123341, "EFF_DATE": null, "SE_ANNO_CAD_DATA": null }, "geometry": { "type": "Point", "coordinates": [ -122.367977279506775, 47.642371512760967 ] } },
{ "type": "Feature", "properties": { "OBJECTID": 176, "NAME": "Maritime Building", "ADDRESS": "911 Western Ave", "ORIG_ADDRE": "911 Western Ave", "PIN": "7666202525", "LANDNO": 767917, "ORDINANCE": 125419, "EFF_DATE": null, "SE_ANNO_CAD_DATA": null }, "geometry": { "type": "Point", "coordinates": [ -122.337407252455705, 47.603777466190493 ] } },
{ "type": "Feature", "properties": { "OBJECTID": 177, "NAME": "Sixth Church of Christ, Scientist (former)", "ADDRESS": "2656 42nd Ave SW", "ORIG_ADDRE": "2656 42nd Ave SW", "PIN": "6087101025", "LANDNO": 767918, "ORDINANCE": 123296, "EFF_DATE": null, "SE_ANNO_CAD_DATA": null }, "geometry": { "type": "Point", "coordinates": [ -122.384850327876606, 47.579498910091935 ] } },
{ "type": "Feature", "properties": { "OBJECTID": 178, "NAME": "Kenney Seaview Building", "ADDRESS": "7125 Fauntleroy Way SW", "ORIG_ADDRE": "7125 Fauntleroy Way SW", "PIN": "4315700240", "LANDNO": 767919, "ORDINANCE": 0, "EFF_DATE": null, "SE_ANNO_CAD_DATA": null }, "geometry": { "type": "Point", "coordinates": [ -122.392010988671814, 47.538875900373263 ] } },
{ "type": "Feature", "properties": { "OBJECTID": 179, "NAME": "Harborview Medical Center", "ADDRESS": "325 9th Ave", "ORIG_ADDRE": "325 Ninth Ave", "PIN": "8590400545", "LANDNO": 767920, "ORDINANCE": 123557, "EFF_DATE": null, "SE_ANNO_CAD_DATA": null }, "geometry": { "type": "Point", "coordinates": [ -122.323896798192905, 47.603831762956304 ] } },
{ "type": "Feature", "properties": { "OBJECTID": 180, "NAME": "Baroness Apartment Hotel", "ADDRESS": "1005 Spring St", "ORIG_ADDRE": "1005 Spring Street", "PIN": "8590901030", "LANDNO": 767921, "ORDINANCE": 123487, "EFF_DATE": null, "SE_ANNO_CAD_DATA": null }, "geometry": { "type": "Point", "coordinates": [ -122.326461716735579, 47.609582001956539 ] } },
{ "type": "Feature", "properties": { "OBJECTID": 181, "NAME": "Cooper House", "ADDRESS": "227 14th Ave E", "ORIG_ADDRE": "227 14th Ave E", "PIN": "6003501795", "LANDNO": 767922, "ORDINANCE": 123022, "EFF_DATE": "2009-08-07T08:00:00Z", "SE_ANNO_CAD_DATA": null }, "geometry": { "type": "Point", "coordinates": [ -122.314735733540829, 47.620779627523483 ] } },
{ "type": "Feature", "properties": { "OBJECTID": 182, "NAME": "L'Amourita Apt Bldg", "ADDRESS": "2901 Franklin Ave E", "ORIG_ADDRE": "2901-2917 Franklin Ave E", "PIN": "1959702631", "LANDNO": 767923, "ORDINANCE": 122594, "EFF_DATE": "2008-01-12T08:00:00Z", "SE_ANNO_CAD_DATA": null }, "geometry": { "type": "Point", "coordinates": [ -122.323428024080329, 47.647351564602623 ] } },
{ "type": "Feature", "properties": { "OBJECTID": 183, "NAME": "First Covenant Church", "ADDRESS": "1500 Bellevue Ave E", "ORIG_ADDRE": "1500 Bellevue Ave", "PIN": "8725600475", "LANDNO": 767924, "ORDINANCE": 112425, "EFF_DATE": "1985-10-17T08:00:00Z", "SE_ANNO_CAD_DATA": null }, "geometry": { "type": "Point", "coordinates": [ -122.326605331523979, 47.614264064710682 ] } },
{ "type": "Feature", "properties": { "OBJECTID": 184, "NAME": "Bloss House", "ADDRESS": "4055 SW Holgate St", "ORIG_ADDRE": "4055 SW Holgate Street", "PIN": "9151600005", "LANDNO": 767925, "ORDINANCE": 123846, "EFF_DATE": null, "SE_ANNO_CAD_DATA": null }, "geometry": { "type": "Point", "coordinates": [ -122.382646455941043, 47.586533419025926 ] } },
{ "type": "Feature", "properties": { "OBJECTID": 185, "NAME": "Pacific Science Center", "ADDRESS": "202 2nd Ave N", "ORIG_ADDRE": "202 2nd Ave N", "PIN": "1985200140", "LANDNO": 767926, "ORDINANCE": 124932, "EFF_DATE": "1899-12-30T08:00:00Z", "SE_ANNO_CAD_DATA": null }, "geometry": { "type": "Point", "coordinates": [ -122.351106812480936, 47.619740595564011 ] } },
{ "type": "Feature", "properties": { "OBJECTID": 186, "NAME": "Lloyd Building", "ADDRESS": "601 Stewart St", "ORIG_ADDRE": "601 Stewart St", "PIN": "0659000350", "LANDNO": 767927, "ORDINANCE": 0, "EFF_DATE": "1899-12-30T08:00:00Z", "SE_ANNO_CAD_DATA": null }, "geometry": { "type": "Point", "coordinates": [ -122.336650439447681, 47.613564514548763 ] } },
{ "type": "Feature", "properties": { "OBJECTID": 187, "NAME": "Admiral's House", "ADDRESS": "2099 W Garfield St", "ORIG_ADDRE": "2001 W Garfield St", "PIN": "2325039106", "LANDNO": 767928, "ORDINANCE": 124135, "EFF_DATE": "1899-12-30T08:00:00Z", "SE_ANNO_CAD_DATA": null }, "geometry": { "type": "Point", "coordinates": [ -122.388602429662512, 47.631983414677009 ] } },
{ "type": "Feature", "properties": { "OBJECTID": 188, "NAME": "YWCA Building", "ADDRESS": "1118 5th Ave", "ORIG_ADDRE": "1118 5th Ave", "PIN": "2301950000", "LANDNO": 767929, "ORDINANCE": 124292, "EFF_DATE": "1899-12-30T08:00:00Z", "SE_ANNO_CAD_DATA": null }, "geometry": { "type": "Point", "coordinates": [ -122.332581947299332, 47.607888525904798 ] } },
{ "type": "Feature", "properties": { "OBJECTID": 189, "NAME": "Bel-Roy Apartments", "ADDRESS": "703 Bellevue Ave E", "ORIG_ADDRE": "703 Bellevue Ave E", "PIN": "2163900440", "LANDNO": 767930, "ORDINANCE": 123857, "EFF_DATE": "1899-12-30T08:00:00Z", "SE_ANNO_CAD_DATA": null }, "geometry": { "type": "Point", "coordinates": [ -122.327378145138013, 47.625417970872761 ] } },
{ "type": "Feature", "properties": { "OBJECTID": 190, "NAME": "RKO Distributing Co. Bldg", "ADDRESS": "2312 Second Ave", "ORIG_ADDRE": "2312 Second Ave", "PIN": "0656000230", "LANDNO": 767931, "ORDINANCE": 124551, "EFF_DATE": "1899-12-30T08:00:00Z", "SE_ANNO_CAD_DATA": null }, "geometry": { "type": "Point", "coordinates": [ -122.345875127365588, 47.614675642026427 ] } },
{ "type": "Feature", "properties": { "OBJECTID": 191, "NAME": "Villa Costella", "ADDRESS": "348 W Olympic Way", "ORIG_ADDRE": "348 W Olympic Way", "PIN": "8944110000", "LANDNO": 767932, "ORDINANCE": 123847, "EFF_DATE": "1899-12-30T08:00:00Z", "SE_ANNO_CAD_DATA": null }, "geometry": { "type": "Point", "coordinates": [ -122.362790588601499, 47.626984487720357 ] } },
{ "type": "Feature", "properties": { "OBJECTID": 192, "NAME": "Yesler Terrace Steam Plant", "ADDRESS": "120 8th Ave", "ORIG_ADDRE": "120 8th Ave", "PIN": "9821700005", "LANDNO": 767933, "ORDINANCE": 124717, "EFF_DATE": "1899-12-30T08:00:00Z", "SE_ANNO_CAD_DATA": null }, "geometry": { "type": "Point", "coordinates": [ -122.322218058117826, 47.602465753051369 ] } },
{ "type": "Feature", "properties": { "OBJECTID": 193, "NAME": "Rohrer House", "ADDRESS": "122 37th Ave E", "ORIG_ADDRE": "122 37th Ave E", "PIN": "9103000720", "LANDNO": 767934, "ORDINANCE": 124243, "EFF_DATE": "1899-12-30T08:00:00Z", "SE_ANNO_CAD_DATA": null }, "geometry": { "type": "Point", "coordinates": [ -122.286073550441344, 47.619115124622851 ] } },
{ "type": "Feature", "properties": { "OBJECTID": 194, "NAME": "Chamber of Commerce Bldg", "ADDRESS": "215 Columbia St", "ORIG_ADDRE": "215 Columbia St", "PIN": "0939000245", "LANDNO": 767935, "ORDINANCE": 123848, "EFF_DATE": "1899-12-30T08:00:00Z", "SE_ANNO_CAD_DATA": null }, "geometry": { "type": "Point", "coordinates": [ -122.332931797756331, 47.603799904943671 ] } },
{ "type": "Feature", "properties": { "OBJECTID": 195, "NAME": "Latona Hotel/Ace Hotel", "ADDRESS": "2419-2423 1st Avenue", "ORIG_ADDRE": " ", "PIN": "0653000100", "LANDNO": 767936, "ORDINANCE": 0, "EFF_DATE": "2011-02-16T08:00:00Z", "SE_ANNO_CAD_DATA": null }, "geometry": { "type": "Point", "coordinates": [ -122.348811540751797, 47.614383000020261 ] } },
{ "type": "Feature", "properties": { "OBJECTID": 196, "NAME": "Barksdale House", "ADDRESS": "13226 42nd Ave NE", "ORIG_ADDRE": " ", "PIN": "1454600165", "LANDNO": 767937, "ORDINANCE": 124244, "EFF_DATE": "1899-12-30T08:00:00Z", "SE_ANNO_CAD_DATA": null }, "geometry": { "type": "Point", "coordinates": [ -122.281924830166531, 47.725604061020597 ] } },
{ "type": "Feature", "properties": { "OBJECTID": 197, "NAME": "Castle Apartments", "ADDRESS": "2132 2nd Ave", "ORIG_ADDRE": " ", "PIN": "1977201145", "LANDNO": 767938, "ORDINANCE": 0, "EFF_DATE": "1899-12-30T08:00:00Z", "SE_ANNO_CAD_DATA": null }, "geometry": { "type": "Point", "coordinates": [ -122.343935346883484, 47.613339801488912 ] } },
{ "type": "Feature", "properties": { "OBJECTID": 198, "NAME": "Pacific Net & Twine Building", "ADDRESS": "51 University St", "ORIG_ADDRE": " ", "PIN": "2539070000", "LANDNO": 767939, "ORDINANCE": 124291, "EFF_DATE": "1899-12-30T08:00:00Z", "SE_ANNO_CAD_DATA": null }, "geometry": { "type": "Point", "coordinates": [ -122.33947670733906, 47.606036706954988 ] } },
{ "type": "Feature", "properties": { "OBJECTID": 199, "NAME": "Boren Investment Company Warehouse Building", "ADDRESS": "334 Boren Ave N", "ORIG_ADDRE": " ", "PIN": "1986200515", "LANDNO": 767940, "ORDINANCE": 124494, "EFF_DATE": "2014-07-13T08:00:00Z", "SE_ANNO_CAD_DATA": null }, "geometry": { "type": "Point", "coordinates": [ -122.335490578597145, 47.621776109070119 ] } },
{ "type": "Feature", "properties": { "OBJECTID": 200, "NAME": "Palladian Apartments", "ADDRESS": "2000 Second Ave", "ORIG_ADDRE": " ", "PIN": "1977201140", "LANDNO": 767941, "ORDINANCE": 124376, "EFF_DATE": "1899-12-30T08:00:00Z", "SE_ANNO_CAD_DATA": null }, "geometry": { "type": "Point", "coordinates": [ -122.341648398176872, 47.612032162120975 ] } },
{ "type": "Feature", "properties": { "OBJECTID": 201, "NAME": "Fashioncraft Building/Recovery Cafe", "ADDRESS": "2022 Boren Ave", "ORIG_ADDRE": " ", "PIN": "0660002245", "LANDNO": 767942, "ORDINANCE": 124190, "EFF_DATE": "1899-12-30T08:00:00Z", "SE_ANNO_CAD_DATA": null }, "geometry": { "type": "Point", "coordinates": [ -122.334617412058037, 47.618346436722788 ] } },
{ "type": "Feature", "properties": { "OBJECTID": 202, "NAME": "Seattle Post Intelligencer Globe", "ADDRESS": "101 Elliott Ave W", "ORIG_ADDRE": " ", "PIN": "7666202220", "LANDNO": 767943, "ORDINANCE": 124964, "EFF_DATE": "1899-12-30T08:00:00Z", "SE_ANNO_CAD_DATA": null }, "geometry": { "type": "Point", "coordinates": [ -122.359510984037883, 47.618935890779099 ] } },
{ "type": "Feature", "properties": { "OBJECTID": 203, "NAME": "Seattle National Bank (United Way Building)", "ADDRESS": "720 Second Ave", "ORIG_ADDRE": " ", "PIN": "0939000240", "LANDNO": 767944, "ORDINANCE": 124716, "EFF_DATE": "1899-12-30T08:00:00Z", "SE_ANNO_CAD_DATA": null }, "geometry": { "type": "Point", "coordinates": [ -122.333279042900983, 47.603661687252846 ] } },
{ "type": "Feature", "properties": { "OBJECTID": 204, "NAME": "Horace Mann School", "ADDRESS": "2410 E Cherry St", "ORIG_ADDRE": " ", "PIN": "0519000290", "LANDNO": 767945, "ORDINANCE": 124245, "EFF_DATE": "1899-12-30T08:00:00Z", "SE_ANNO_CAD_DATA": null }, "geometry": { "type": "Point", "coordinates": [ -122.300925729861461, 47.608424168293091 ] } },
{ "type": "Feature", "properties": { "OBJECTID": 205, "NAME": "Cedar Park Elementary School", "ADDRESS": "13224 37th Ave NE", "ORIG_ADDRE": " ", "PIN": "1454100350", "LANDNO": 767946, "ORDINANCE": 124515, "EFF_DATE": "1899-12-30T08:00:00Z", "SE_ANNO_CAD_DATA": null }, "geometry": { "type": "Point", "coordinates": [ -122.287466722812681, 47.726057789773222 ] } },
{ "type": "Feature", "properties": { "OBJECTID": 206, "NAME": "Neptune Building", "ADDRESS": "1301 NE 45th St", "ORIG_ADDRE": " ", "PIN": "1142000235", "LANDNO": 767947, "ORDINANCE": 124430, "EFF_DATE": "1899-12-30T08:00:00Z", "SE_ANNO_CAD_DATA": null }, "geometry": { "type": "Point", "coordinates": [ -122.3138987040535, 47.660969553017168 ] } },
{ "type": "Feature", "properties": { "OBJECTID": 207, "NAME": "Ballard Carnegie Library", "ADDRESS": "2026 NW Market St", "ORIG_ADDRE": " ", "PIN": "2767700960", "LANDNO": 767948, "ORDINANCE": 124227, "EFF_DATE": "1899-12-30T08:00:00Z", "SE_ANNO_CAD_DATA": null }, "geometry": { "type": "Point", "coordinates": [ -122.383389337027083, 47.668935278802884 ] } },
{ "type": "Feature", "properties": { "OBJECTID": 208, "NAME": "Town Hall Seattle (Fourth Church of Christ, Scientist)", "ADDRESS": "1119 8th Ave", "ORIG_ADDRE": " ", "PIN": "1979200050", "LANDNO": 767949, "ORDINANCE": 124933, "EFF_DATE": "1899-12-30T08:00:00Z", "SE_ANNO_CAD_DATA": null }, "geometry": { "type": "Point", "coordinates": [ -122.329942615975909, 47.609007816457634 ] } },
{ "type": "Feature", "properties": { "OBJECTID": 209, "NAME": "Chiarelli-Dore House", "ADDRESS": "843 NE 100th St", "ORIG_ADDRE": " ", "PIN": "5101405378", "LANDNO": 767950, "ORDINANCE": 124425, "EFF_DATE": "1899-12-30T08:00:00Z", "SE_ANNO_CAD_DATA": null }, "geometry": { "type": "Point", "coordinates": [ -122.318608222932724, 47.701123330119231 ] } },
{ "type": "Feature", "properties": { "OBJECTID": 210, "NAME": "Charles P Dose House", "ADDRESS": "2121 31st Ave S", "ORIG_ADDRE": " ", "PIN": "2090200025", "LANDNO": 767951, "ORDINANCE": 124246, "EFF_DATE": "1899-12-30T08:00:00Z", "SE_ANNO_CAD_DATA": null }, "geometry": { "type": "Point", "coordinates": [ -122.293332347857685, 47.583777864851172 ] } },
{ "type": "Feature", "properties": { "OBJECTID": 211, "NAME": "Montlake School", "ADDRESS": "2409 22nd Ave E", "ORIG_ADDRE": " ", "PIN": "6788200735", "LANDNO": 767952, "ORDINANCE": 124778, "EFF_DATE": "1899-12-30T08:00:00Z", "SE_ANNO_CAD_DATA": null }, "geometry": { "type": "Point", "coordinates": [ -122.30428418368723, 47.640632639336445 ] } },
{ "type": "Feature", "properties": { "OBJECTID": 212, "NAME": "Union Stables", "ADDRESS": "2200 Western Ave", "ORIG_ADDRE": " ", "PIN": "1977200605", "LANDNO": 767953, "ORDINANCE": 124495, "EFF_DATE": "2014-07-13T08:00:00Z", "SE_ANNO_CAD_DATA": null }, "geometry": { "type": "Point", "coordinates": [ -122.346110006743316, 47.612298207421539 ] } },
{ "type": "Feature", "properties": { "OBJECTID": 213, "NAME": "Puget Sound Power and Light Co. Utilities Bldg", "ADDRESS": "800 Aloha St", "ORIG_ADDRE": " ", "PIN": "4088803530", "LANDNO": 767954, "ORDINANCE": 0, "EFF_DATE": "1899-12-30T08:00:00Z", "SE_ANNO_CAD_DATA": null }, "geometry": { "type": "Point", "coordinates": [ -122.340838807279582, 47.625907819977769 ] } },
{ "type": "Feature", "properties": { "OBJECTID": 214, "NAME": "Fourteenth Ave W Group", "ADDRESS": "2000 14th Ave W", "ORIG_ADDRE": "2000-2016 14th Ave W", "PIN": " ", "LANDNO": 767955, "ORDINANCE": 108211, "EFF_DATE": "1979-05-14T08:00:00Z", "SE_ANNO_CAD_DATA": null }, "geometry": { "type": "Point", "coordinates": [ -122.374547547828186, 47.636862349268007 ] } },
{ "type": "Feature", "properties": { "OBJECTID": 215, "NAME": "Fourteenth Ave W Group", "ADDRESS": "2006 14th Ave W", "ORIG_ADDRE": "2000-2016 14th Ave W", "PIN": " ", "LANDNO": 767956, "ORDINANCE": 108211, "EFF_DATE": "1979-05-14T08:00:00Z", "SE_ANNO_CAD_DATA": null }, "geometry": { "type": "Point", "coordinates": [ -122.374533065544767, 47.636996808826595 ] } },
{ "type": "Feature", "properties": { "OBJECTID": 216, "NAME": "Fourteenth Ave W Group", "ADDRESS": "2010 14th Ave W", "ORIG_ADDRE": "2000-2016 14th Ave W", "PIN": " ", "LANDNO": 767957, "ORDINANCE": 108211, "EFF_DATE": "1979-05-14T08:00:00Z", "SE_ANNO_CAD_DATA": null }, "geometry": { "type": "Point", "coordinates": [ -122.374732273981607, 47.637063488101866 ] } },
{ "type": "Feature", "properties": { "OBJECTID": 217, "NAME": "Fourteenth Ave W Group", "ADDRESS": "2016 14th Ave W", "ORIG_ADDRE": "2000-2016 14th Ave W", "PIN": " ", "LANDNO": 767958, "ORDINANCE": 108211, "EFF_DATE": "1979-05-14T08:00:00Z", "SE_ANNO_CAD_DATA": null }, "geometry": { "type": "Point", "coordinates": [ -122.374663322065501, 47.637299203256354 ] } },
{ "type": "Feature", "properties": { "OBJECTID": 218, "NAME": "Twenty-third Ave Houses Group", "ADDRESS": "816 23rd Ave", "ORIG_ADDRE": "812-828 23rd Ave", "PIN": "9126102040", "LANDNO": 767959, "ORDINANCE": 108732, "EFF_DATE": "1979-12-24T08:00:00Z", "SE_ANNO_CAD_DATA": null }, "geometry": { "type": "Point", "coordinates": [ -122.302521652214452, 47.60953995284396 ] } },
{ "type": "Feature", "properties": { "OBJECTID": 219, "NAME": "Twenty-third Ave Houses Group", "ADDRESS": "822 23rd Ave", "ORIG_ADDRE": "812-828 23rd Ave", "PIN": "9126102040", "LANDNO": 767960, "ORDINANCE": 108732, "EFF_DATE": "1979-12-24T08:00:00Z", "SE_ANNO_CAD_DATA": null }, "geometry": { "type": "Point", "coordinates": [ -122.302543058654294, 47.609706290776323 ] } },
{ "type": "Feature", "properties": { "OBJECTID": 220, "NAME": "Twenty-third Ave Houses Group", "ADDRESS": "824 23rd Ave", "ORIG_ADDRE": "812-828 23rd Ave", "PIN": "9126102040", "LANDNO": 767961, "ORDINANCE": 108732, "EFF_DATE": "1979-12-24T08:00:00Z", "SE_ANNO_CAD_DATA": null }, "geometry": { "type": "Point", "coordinates": [ -122.302509526697818, 47.609787927684323 ] } },
{ "type": "Feature", "properties": { "OBJECTID": 221, "NAME": "Twenty-third Ave Houses Group", "ADDRESS": "828 23rd Ave", "ORIG_ADDRE": "812-828 23rd Ave", "PIN": "9126102040", "LANDNO": 767962, "ORDINANCE": 108732, "EFF_DATE": "1979-12-24T08:00:00Z", "SE_ANNO_CAD_DATA": null }, "geometry": { "type": "Point", "coordinates": [ -122.302506557493871, 47.609868865675445 ] } },
{ "type": "Feature", "properties": { "OBJECTID": 222, "NAME": "Twenty-third Ave Houses Group", "ADDRESS": "812 23rd Ave", "ORIG_ADDRE": "812-828 23rd Ave", "PIN": "9126102040", "LANDNO": 767963, "ORDINANCE": 108732, "EFF_DATE": "1979-12-24T08:00:00Z", "SE_ANNO_CAD_DATA": null }, "geometry": { "type": "Point", "coordinates": [ -122.302447935165475, 47.609477704640064 ] } },
{ "type": "Feature", "properties": { "OBJECTID": 223, "NAME": "Alexander Hall", "ADDRESS": "315 W Bertona St", "ORIG_ADDRE": " ", "PIN": "8900000555", "LANDNO": 767964, "ORDINANCE": 124424, "EFF_DATE": "1899-12-30T08:00:00Z", "SE_ANNO_CAD_DATA": null }, "geometry": { "type": "Point", "coordinates": [ -122.362208782849464, 47.649128603149094 ] } },
{ "type": "Feature", "properties": { "OBJECTID": 224, "NAME": "Northwest Rooms and Int'l Fountain Pavilion", "ADDRESS": "305 Harrison St", "ORIG_ADDRE": " ", "PIN": "1985200003", "LANDNO": 767965, "ORDINANCE": 124584, "EFF_DATE": "2013-08-07T08:00:00Z", "SE_ANNO_CAD_DATA": null }, "geometry": { "type": "Point", "coordinates": [ -122.354007605392951, 47.623093305514075 ] } },
{ "type": "Feature", "properties": { "OBJECTID": 225, "NAME": "Battelle Research / Talaris Conference Center", "ADDRESS": "4000 NE 41st St", "ORIG_ADDRE": " ", "PIN": "1525049010", "LANDNO": 767966, "ORDINANCE": 0, "EFF_DATE": "2013-09-18T08:00:00Z", "SE_ANNO_CAD_DATA": null }, "geometry": { "type": "Point", "coordinates": [ -122.284430556995815, 47.659859832060242 ] } },
{ "type": "Feature", "properties": { "OBJECTID": 226, "NAME": "Judge Ronald House", "ADDRESS": "421 30th Ave S", "ORIG_ADDRE": " ", "PIN": "9552200145", "LANDNO": 767967, "ORDINANCE": 124502, "EFF_DATE": "2013-10-22T08:00:00Z", "SE_ANNO_CAD_DATA": null }, "geometry": { "type": "Point", "coordinates": [ -122.2941236296016, 47.598493781589482 ] } },
{ "type": "Feature", "properties": { "OBJECTID": 227, "NAME": "901 Harrison St", "ADDRESS": "901 Harrison St", "ORIG_ADDRE": " ", "PIN": "1986200175", "LANDNO": 767968, "ORDINANCE": 125022, "EFF_DATE": "1899-12-30T08:00:00Z", "SE_ANNO_CAD_DATA": null }, "geometry": { "type": "Point", "coordinates": [ -122.339334902568197, 47.621835963355068 ] } },
{ "type": "Feature", "properties": { "OBJECTID": 228, "NAME": "777 Thomas St", "ADDRESS": "777 Thomas St", "ORIG_ADDRE": " ", "PIN": "1991201080", "LANDNO": 767969, "ORDINANCE": 124501, "EFF_DATE": "1899-12-30T08:00:00Z", "SE_ANNO_CAD_DATA": null }, "geometry": { "type": "Point", "coordinates": [ -122.341379706017392, 47.620686446946422 ] } },
{ "type": "Feature", "properties": { "OBJECTID": 229, "NAME": "Satterlee House", "ADDRESS": "4862 Beach Drive SW", "ORIG_ADDRE": "4866 Beach Drive SW", "PIN": "7936000245", "LANDNO": 767970, "ORDINANCE": 111022, "EFF_DATE": "1983-02-22T08:00:00Z", "SE_ANNO_CAD_DATA": null }, "geometry": { "type": "Point", "coordinates": [ -122.400430350028955, 47.558103537126129 ] } },
{ "type": "Feature", "properties": { "OBJECTID": 230, "NAME": "Satterlee House", "ADDRESS": "4858 Beach Drive SW", "ORIG_ADDRE": "4866 Beach Drive SW", "PIN": "7936000240", "LANDNO": 767971, "ORDINANCE": 111022, "EFF_DATE": "1983-02-22T08:00:00Z", "SE_ANNO_CAD_DATA": null }, "geometry": { "type": "Point", "coordinates": [ -122.401065524997321, 47.558107632109369 ] } },
{ "type": "Feature", "properties": { "OBJECTID": 231, "NAME": "Satterlee House", "ADDRESS": "4854 Beach Drive SW", "ORIG_ADDRE": "4866 Beach Drive SW", "PIN": "7936000235", "LANDNO": 767972, "ORDINANCE": 111022, "EFF_DATE": "1983-02-22T08:00:00Z", "SE_ANNO_CAD_DATA": null }, "geometry": { "type": "Point", "coordinates": [ -122.40130460770358, 47.558130041596833 ] } },
{ "type": "Feature", "properties": { "OBJECTID": 232, "NAME": "Fire Station No 5", "ADDRESS": "925 Alaskan Way", "ORIG_ADDRE": " ", "PIN": "7666202500", "LANDNO": 767973, "ORDINANCE": 125021, "EFF_DATE": "1899-12-30T08:00:00Z", "SE_ANNO_CAD_DATA": null }, "geometry": { "type": "Point", "coordinates": [ -122.338764611035927, 47.60359812720602 ] } },
{ "type": "Feature", "properties": { "OBJECTID": 233, "NAME": "Ainsworth & Dunn Warehouse", "ADDRESS": "2815 Elliott Ave", "ORIG_ADDRE": " ", "PIN": "7666202305", "LANDNO": 767974, "ORDINANCE": 125853, "EFF_DATE": "1899-12-30T08:00:00Z", "SE_ANNO_CAD_DATA": null }, "geometry": { "type": "Point", "coordinates": [ -122.353851414196626, 47.615232695067228 ] } },
{ "type": "Feature", "properties": { "OBJECTID": 234, "NAME": "McGilvra Elementary School", "ADDRESS": "1617 38th Ave E", "ORIG_ADDRE": "1617 38th Ave E", "PIN": "5318100820", "LANDNO": 767975, "ORDINANCE": 124777, "EFF_DATE": null, "SE_ANNO_CAD_DATA": null }, "geometry": { "type": "Point", "coordinates": [ -122.284831811465523, 47.634077738297918 ] } },
{ "type": "Feature", "properties": { "OBJECTID": 235, "NAME": "The Theodora", "ADDRESS": "6559 35th Ave NE", "ORIG_ADDRE": "6559 35th Ave NE", "PIN": "0425049047", "LANDNO": 767976, "ORDINANCE": 125105, "EFF_DATE": "1899-12-30T08:00:00Z", "SE_ANNO_CAD_DATA": null }, "geometry": { "type": "Point", "coordinates": [ -122.291260365408533, 47.677234283002988 ] } },
{ "type": "Feature", "properties": { "OBJECTID": 236, "NAME": "Schoenfeld Building", "ADDRESS": "1012 1st Ave", "ORIG_ADDRE": "1012 First Ave", "PIN": "0939000530", "LANDNO": 767977, "ORDINANCE": 124934, "EFF_DATE": "1899-12-30T08:00:00Z", "SE_ANNO_CAD_DATA": null }, "geometry": { "type": "Point", "coordinates": [ -122.336266532904318, 47.605278269843502 ] } },
{ "type": "Feature", "properties": { "OBJECTID": 237, "NAME": "Kelly-Springfield Motor Truck Co Bldg", "ADDRESS": "1525 11th Ave", "ORIG_ADDRE": "1525 11th Ave", "PIN": "6003500420", "LANDNO": 767978, "ORDINANCE": 0, "EFF_DATE": "1899-12-30T08:00:00Z", "SE_ANNO_CAD_DATA": null }, "geometry": { "type": "Point", "coordinates": [ -122.318473924244657, 47.614777620588463 ] } },
{ "type": "Feature", "properties": { "OBJECTID": 238, "NAME": "White Motor Company Building", "ADDRESS": "1021 E. Pine Street", "ORIG_ADDRE": "1021 E. Pine Street", "PIN": "6003500395", "LANDNO": 767979, "ORDINANCE": null, "EFF_DATE": "2014-12-17T08:00:00Z", "SE_ANNO_CAD_DATA": null }, "geometry": { "type": "Point", "coordinates": [ -122.318457534964267, 47.615080942962955 ] } },
{ "type": "Feature", "properties": { "OBJECTID": 239, "NAME": "Loyal Heights Elementary School", "ADDRESS": "2501 NW 80th St", "ORIG_ADDRE": "2501 NW 80th St", "PIN": "4443801580", "LANDNO": 767980, "ORDINANCE": 0, "EFF_DATE": "1899-12-30T08:00:00Z", "SE_ANNO_CAD_DATA": null }, "geometry": { "type": "Point", "coordinates": [ -122.389050455882156, 47.686435439389037 ] } },
{ "type": "Feature", "properties": { "OBJECTID": 240, "NAME": "Seattle Times Bldg - Printing Plant", "ADDRESS": "1120 John Street", "ORIG_ADDRE": "1120 John Street", "PIN": "1986200525", "LANDNO": 767981, "ORDINANCE": 0, "EFF_DATE": "1899-12-30T08:00:00Z", "SE_ANNO_CAD_DATA": null }, "geometry": { "type": "Point", "coordinates": [ -122.334794864530252, 47.620239862914033 ] } },
{ "type": "Feature", "properties": { "OBJECTID": 241, "NAME": "Seattle Times Bldg - 1947 Office Addition", "ADDRESS": "1120 John Street", "ORIG_ADDRE": "1120 John Street", "PIN": "1986200525", "LANDNO": 767982, "ORDINANCE": 0, "EFF_DATE": "1899-12-30T08:00:00Z", "SE_ANNO_CAD_DATA": null }, "geometry": { "type": "Point", "coordinates": [ -122.334769886725795, 47.619984319038878 ] } },
{ "type": "Feature", "properties": { "OBJECTID": 242, "NAME": "Anhalt Apartment Building", "ADDRESS": "1600 E John St", "ORIG_ADDRE": "1600 E John St", "PIN": "1806900395", "LANDNO": 767983, "ORDINANCE": 124236, "EFF_DATE": "1899-12-30T08:00:00Z", "SE_ANNO_CAD_DATA": null }, "geometry": { "type": "Point", "coordinates": [ -122.310949583988474, 47.619907139767072 ] } },
{ "type": "Feature", "properties": { "OBJECTID": 243, "NAME": "Ankeny Gowey House", "ADDRESS": "912 2nd Ave W", "ORIG_ADDRE": "912 2nd Ave W", "PIN": "3879900740", "LANDNO": 767984, "ORDINANCE": 123625, "EFF_DATE": "1899-12-30T08:00:00Z", "SE_ANNO_CAD_DATA": null }, "geometry": { "type": "Point", "coordinates": [ -122.358937049336674, 47.627160139775611 ] } },
{ "type": "Feature", "properties": { "OBJECTID": 244, "NAME": "Horiuchi Mural", "ADDRESS": "335 Thomas St", "ORIG_ADDRE": "305 Harrison St", "PIN": "1985200003", "LANDNO": 767985, "ORDINANCE": 123292, "EFF_DATE": "1899-12-30T08:00:00Z", "SE_ANNO_CAD_DATA": null }, "geometry": { "type": "Point", "coordinates": [ -122.350771115542543, 47.620455043489656 ] } },
{ "type": "Feature", "properties": { "OBJECTID": 245, "NAME": "Sorrento Hotel", "ADDRESS": "900 Madison St", "ORIG_ADDRE": "900 Madison St", "PIN": "1979200270", "LANDNO": 767986, "ORDINANCE": 125853, "EFF_DATE": "1899-12-30T08:00:00Z", "SE_ANNO_CAD_DATA": null }, "geometry": { "type": "Point", "coordinates": [ -122.326931895749922, 47.608979647609907 ] } },
{ "type": "Feature", "properties": { "OBJECTID": 246, "NAME": "Lightship Relief/Swiftsure", "ADDRESS": "860 Terry Ave N", "ORIG_ADDRE": " ", "PIN": " ", "LANDNO": 767987, "ORDINANCE": 0, "EFF_DATE": "1899-12-30T08:00:00Z", "SE_ANNO_CAD_DATA": null }, "geometry": { "type": "Point", "coordinates": [ -122.337047810600566, 47.627919583327582 ] } },
{ "type": "Feature", "properties": { "OBJECTID": 247, "NAME": "Volunteer Park Reservoir", "ADDRESS": "1400 E Prospect St", "ORIG_ADDRE": "1400 E Prospect St", "PIN": "2925049087", "LANDNO": 767988, "ORDINANCE": 0, "EFF_DATE": null, "SE_ANNO_CAD_DATA": null }, "geometry": { "type": "Point", "coordinates": [ -122.316631512272025, 47.62946835832615 ] } },
{ "type": "Feature", "properties": { "OBJECTID": 248, "NAME": "Volunteer Park Water Tower", "ADDRESS": "1400 E Prospect St", "ORIG_ADDRE": "1400 E Prospect St", "PIN": "2925049087", "LANDNO": 767989, "ORDINANCE": 0, "EFF_DATE": null, "SE_ANNO_CAD_DATA": null }, "geometry": { "type": "Point", "coordinates": [ -122.314558209041778, 47.628995513534228 ] } },
{ "type": "Feature", "properties": { "OBJECTID": 249, "NAME": "Volunteer Park Grounds", "ADDRESS": "1400 E Prospect St", "ORIG_ADDRE": "1400 E Prospect St", "PIN": "2925049087", "LANDNO": 767990, "ORDINANCE": 0, "EFF_DATE": null, "SE_ANNO_CAD_DATA": null }, "geometry": { "type": "Point", "coordinates": [ -122.318194143216701, 47.632032890188519 ] } },
{ "type": "Feature", "properties": { "OBJECTID": 250, "NAME": "Volunteer Park Grounds", "ADDRESS": "1400 E Prospect St", "ORIG_ADDRE": "1400 E Prospect St", "PIN": "2925049087", "LANDNO": 767991, "ORDINANCE": 0, "EFF_DATE": null, "SE_ANNO_CAD_DATA": null }, "geometry": { "type": "Point", "coordinates": [ -122.31819627575797, 47.630997472118104 ] } },
{ "type": "Feature", "properties": { "OBJECTID": 251, "NAME": "Volunteer Park Grounds", "ADDRESS": "1400 E Prospect St", "ORIG_ADDRE": "1400 E Prospect St", "PIN": "2925049087", "LANDNO": 767992, "ORDINANCE": 0, "EFF_DATE": null, "SE_ANNO_CAD_DATA": null }, "geometry": { "type": "Point", "coordinates": [ -122.318209374663994, 47.629976192522847 ] } },
{ "type": "Feature", "properties": { "OBJECTID": 252, "NAME": "Volunteer Park Grounds", "ADDRESS": "1400 E Prospect St", "ORIG_ADDRE": "1400 E Prospect St", "PIN": "2925049087", "LANDNO": 767993, "ORDINANCE": 0, "EFF_DATE": null, "SE_ANNO_CAD_DATA": null }, "geometry": { "type": "Point", "coordinates": [ -122.318278325754122, 47.629061293341998 ] } },
{ "type": "Feature", "properties": { "OBJECTID": 253, "NAME": "Volunteer Park Grounds", "ADDRESS": "1400 E Prospect St", "ORIG_ADDRE": "1400 E Prospect St", "PIN": "2925049087", "LANDNO": 767994, "ORDINANCE": 0, "EFF_DATE": null, "SE_ANNO_CAD_DATA": null }, "geometry": { "type": "Point", "coordinates": [ -122.317359231969192, 47.628687686400035 ] } },
{ "type": "Feature", "properties": { "OBJECTID": 254, "NAME": "Capitol Hill United Methodist Church", "ADDRESS": "128 16th Ave E", "ORIG_ADDRE": "128 16th Ave E", "PIN": "8080400005", "LANDNO": 767995, "ORDINANCE": 106144, "EFF_DATE": "1977-01-10T08:00:00Z", "SE_ANNO_CAD_DATA": null }, "geometry": { "type": "Point", "coordinates": [ -122.311052609785165, 47.619432282719146 ] } },
{ "type": "Feature", "properties": { "OBJECTID": 255, "NAME": "Brehm Brothers House #1", "ADDRESS": "219 36th Ave E", "ORIG_ADDRE": "219 36th Ave E", "PIN": "1778500360", "LANDNO": 767996, "ORDINANCE": 108734, "EFF_DATE": "1979-12-24T08:00:00Z", "SE_ANNO_CAD_DATA": null }, "geometry": { "type": "Point", "coordinates": [ -122.287221473479889, 47.620683315674619 ] } },
{ "type": "Feature", "properties": { "OBJECTID": 256, "NAME": "Epiphany Chapel", "ADDRESS": "3719 E Denny Way", "ORIG_ADDRE": "3719 E Denny Way", "PIN": "9103000660", "LANDNO": 767997, "ORDINANCE": 107756, "EFF_DATE": "1978-10-23T08:00:00Z", "SE_ANNO_CAD_DATA": null }, "geometry": { "type": "Point", "coordinates": [ -122.286524179109122, 47.617988673769169 ] } },
{ "type": "Feature", "properties": { "OBJECTID": 257, "NAME": "Barnes Building", "ADDRESS": "2320 1st Ave", "ORIG_ADDRE": "2320 1st Ave", "PIN": "0655000020", "LANDNO": 767998, "ORDINANCE": 107754, "EFF_DATE": "1978-10-23T08:00:00Z", "SE_ANNO_CAD_DATA": null }, "geometry": { "type": "Point", "coordinates": [ -122.346957124329535, 47.613992864501029 ] } },
{ "type": "Feature", "properties": { "OBJECTID": 258, "NAME": "Bell Building", "ADDRESS": "2326 1st Ave", "ORIG_ADDRE": "2326 1st Ave", "PIN": "0657008888", "LANDNO": 767999, "ORDINANCE": 107753, "EFF_DATE": "1978-10-23T08:00:00Z", "SE_ANNO_CAD_DATA": null }, "geometry": { "type": "Point", "coordinates": [ -122.347192904086015, 47.614134840861631 ] } },
{ "type": "Feature", "properties": { "OBJECTID": 259, "NAME": "Fire Station #2", "ADDRESS": "2318 4th Ave", "ORIG_ADDRE": "2318 4th Ave", "PIN": "0696000160", "LANDNO": 768000, "ORDINANCE": 113089, "EFF_DATE": "1986-09-29T08:00:00Z", "SE_ANNO_CAD_DATA": null }, "geometry": { "type": "Point", "coordinates": [ -122.344456130179012, 47.616034931668338 ] } },
{ "type": "Feature", "properties": { "OBJECTID": 260, "NAME": "Terminal Sales Building", "ADDRESS": "1932 1st Ave", "ORIG_ADDRE": "1932 First Ave", "PIN": "1977200920", "LANDNO": 768001, "ORDINANCE": 114774, "EFF_DATE": "1989-10-16T08:00:00Z", "SE_ANNO_CAD_DATA": null }, "geometry": { "type": "Point", "coordinates": [ -122.342093339183535, 47.611102546999099 ] } },
{ "type": "Feature", "properties": { "OBJECTID": 261, "NAME": "Josephinum/New Washington Hotel", "ADDRESS": "1902 2nd Ave", "ORIG_ADDRE": "1902 2nd Ave", "PIN": "1977201060", "LANDNO": 768002, "ORDINANCE": 114770, "EFF_DATE": "1989-10-16T08:00:00Z", "SE_ANNO_CAD_DATA": null }, "geometry": { "type": "Point", "coordinates": [ -122.340472819459492, 47.611362149026469 ] } },
{ "type": "Feature", "properties": { "OBJECTID": 262, "NAME": "Bon Marche", "ADDRESS": "300 Pine St", "ORIG_ADDRE": "300 Pine St", "PIN": "1977201320", "LANDNO": 768003, "ORDINANCE": 114772, "EFF_DATE": "1989-10-16T08:00:00Z", "SE_ANNO_CAD_DATA": null }, "geometry": { "type": "Point", "coordinates": [ -122.338595838997364, 47.611465056141263 ] } },
{ "type": "Feature", "properties": { "OBJECTID": 263, "NAME": "Street Clock:  Century Square", "ADDRESS": "1529 4th Ave", "ORIG_ADDRE": "1529 4th Ave", "PIN": "1975700365", "LANDNO": 768004, "ORDINANCE": 0, "EFF_DATE": null, "SE_ANNO_CAD_DATA": null }, "geometry": { "type": "Point", "coordinates": [ -122.337519016942892, 47.610843019828806 ] } },
{ "type": "Feature", "properties": { "OBJECTID": 264, "NAME": "Coliseum Theatre Building", "ADDRESS": "5th Ave / Pike St", "ORIG_ADDRE": "5th Ave / Pike St", "PIN": "1975700155", "LANDNO": 768005, "ORDINANCE": 107526, "EFF_DATE": "1978-01-17T08:00:00Z", "SE_ANNO_CAD_DATA": null }, "geometry": { "type": "Point", "coordinates": [ -122.335486861890175, 47.611030615555492 ] } },
{ "type": "Feature", "properties": { "OBJECTID": 265, "NAME": "Olympic Tower", "ADDRESS": "217 Pine St", "ORIG_ADDRE": "217 Pine St", "PIN": "6385300005", "LANDNO": 768006, "ORDINANCE": 113425, "EFF_DATE": "1987-05-11T08:00:00Z", "SE_ANNO_CAD_DATA": null }, "geometry": { "type": "Point", "coordinates": [ -122.338850092774265, 47.61037229869531 ] } },
{ "type": "Feature", "properties": { "OBJECTID": 266, "NAME": "Northern Bank and Trust/Seaboard Building", "ADDRESS": "1506 Westlake Ave", "ORIG_ADDRE": "1506 Westlake Ave", "PIN": "7628758888", "LANDNO": 768007, "ORDINANCE": 114769, "EFF_DATE": "1989-10-16T08:00:00Z", "SE_ANNO_CAD_DATA": null }, "geometry": { "type": "Point", "coordinates": [ -122.336491853685374, 47.610570567361684 ] } },
{ "type": "Feature", "properties": { "OBJECTID": 267, "NAME": "Street Clock:  Carroll's Jewelers", "ADDRESS": "860 Terry Ave N", "ORIG_ADDRE": "1427 4th Ave", "PIN": " ", "LANDNO": 768008, "ORDINANCE": 0, "EFF_DATE": null, "SE_ANNO_CAD_DATA": null }, "geometry": { "type": "Point", "coordinates": [ -122.337047496209294, 47.627882261898513 ] } },
{ "type": "Feature", "properties": { "OBJECTID": 268, "NAME": "Joshua Green Building", "ADDRESS": "1425 4th Ave", "ORIG_ADDRE": "1425 4th Ave", "PIN": "1975700305", "LANDNO": 768009, "ORDINANCE": 122778, "EFF_DATE": "2008-10-11T08:00:00Z", "SE_ANNO_CAD_DATA": null }, "geometry": { "type": "Point", "coordinates": [ -122.336655306745826, 47.609824679705788 ] } },
{ "type": "Feature", "properties": { "OBJECTID": 269, "NAME": "Mann Building", "ADDRESS": "1411 3rd Ave", "ORIG_ADDRE": "1411 3rd Ave", "PIN": "1975700525", "LANDNO": 768010, "ORDINANCE": 115037, "EFF_DATE": "1990-04-16T08:00:00Z", "SE_ANNO_CAD_DATA": null }, "geometry": { "type": "Point", "coordinates": [ -122.337381917467937, 47.608817927388742 ] } },
{ "type": "Feature", "properties": { "OBJECTID": 270, "NAME": "Seattle Tower", "ADDRESS": "1212 3rd Ave", "ORIG_ADDRE": "1212 3rd Ave", "PIN": "1975200005", "LANDNO": 768011, "ORDINANCE": 125836, "EFF_DATE": null, "SE_ANNO_CAD_DATA": null }, "geometry": { "type": "Point", "coordinates": [ -122.335415498786929, 47.607557728297024 ] } },
{ "type": "Feature", "properties": { "OBJECTID": 271, "NAME": "1st Avenue Groups/Waterfront Center:  Globe Building", "ADDRESS": "1005 1st Ave", "ORIG_ADDRE": "1001-1011 1st Ave", "PIN": "1974600035", "LANDNO": 768012, "ORDINANCE": 111058, "EFF_DATE": "1983-03-21T08:00:00Z", "SE_ANNO_CAD_DATA": null }, "geometry": { "type": "Point", "coordinates": [ -122.336693747570109, 47.604751961913443 ] } },
{ "type": "Feature", "properties": { "OBJECTID": 272, "NAME": "1st Avenue Groups/Waterfront Center:  Beebe Building", "ADDRESS": "1013 1st Ave", "ORIG_ADDRE": "1013 1st Ave", "PIN": "0268800005", "LANDNO": 768013, "ORDINANCE": 111058, "EFF_DATE": "1983-03-21T08:00:00Z", "SE_ANNO_CAD_DATA": null }, "geometry": { "type": "Point", "coordinates": [ -122.336818323798866, 47.604888958973454 ] } },
{ "type": "Feature", "properties": { "OBJECTID": 273, "NAME": "1st Avenue Groups/Waterfront Center:  National Building", "ADDRESS": "1018 Western Ave", "ORIG_ADDRE": "1006-1024 Western Ave", "PIN": "7666202515", "LANDNO": 768014, "ORDINANCE": 111058, "EFF_DATE": "1983-03-21T08:00:00Z", "SE_ANNO_CAD_DATA": null }, "geometry": { "type": "Point", "coordinates": [ -122.337279524766359, 47.604626356680207 ] } },