[
    { "type": "Feature", "properties": { "OBJECTID": 21, "NAME": "Franklin High School", "ADDRESS": "3013 S Mount Baker Blvd", "ORIG_ADDRE": "3013 S Mount Baker Blvd", "PIN": "5700000455", "LANDNO": 767762, "ORDINANCE": 0, "EFF_DATE": null, "SE_ANNO_CAD_DATA": null }, "geometry": { "type": "Point", "coordinates": [ -122.293003755465364, 47.576128289637701 ] } },
    { "type": "Feature", "properties": { "OBJECTID": 23, "NAME": "Cleveland High School", "ADDRESS": "5511 15th Ave S", "ORIG_ADDRE": "5511 15th Ave S", "PIN": "7549802085", "LANDNO": 767764, "ORDINANCE": 121275, "EFF_DATE": "2003-10-26T08:00:00Z", "SE_ANNO_CAD_DATA": null }, "geometry": { "type": "Point", "coordinates": [ -122.314253465622315, 47.552258501157972 ] } },
    { "type": "Feature", "properties": { "OBJECTID": 40, "NAME": "Seattle Art Museum at Volunteer Park", "ADDRESS": "1400 E Prospect St", "ORIG_ADDRE": "1400 E Prospect St", "PIN": "2925049087", "LANDNO": 767781, "ORDINANCE": 125418, "EFF_DATE": null, "SE_ANNO_CAD_DATA": null }, "geometry": { "type": "Point", "coordinates": [ -122.314318785905741, 47.630294146791975 ] } },
    { "type": "Feature", "properties": { "OBJECTID": 51, "NAME": "Douglass-Truth Library", "ADDRESS": "2300 E Yesler Way", "ORIG_ADDRE": "2300 E Yesler Way", "PIN": "6840701735", "LANDNO": 767792, "ORDINANCE": 121107, "EFF_DATE": "2003-03-24T08:00:00Z", "SE_ANNO_CAD_DATA": null }, "geometry": { "type": "Point", "coordinates": [ -122.301953901805277, 47.601916714867365 ] } },
    { "type": "Feature", "properties": { "OBJECTID": 52, "NAME": "University Library", "ADDRESS": "5009 Roosevelt Way", "ORIG_ADDRE": "5009 Roosevelt Way", "PIN": "0825049041", "LANDNO": 767793, "ORDINANCE": 121104, "EFF_DATE": "2003-03-24T08:00:00Z", "SE_ANNO_CAD_DATA": null }, "geometry": { "type": "Point", "coordinates": [ -122.317913043340184, 47.665249176325105 ] } },
    { "type": "Feature", "properties": { "OBJECTID": 53, "NAME": "Fremont Library", "ADDRESS": "731 N 35th St", "ORIG_ADDRE": "731 N 35th St", "PIN": "1972202795", "LANDNO": 767794, "ORDINANCE": 121103, "EFF_DATE": "2003-03-24T08:00:00Z", "SE_ANNO_CAD_DATA": null }, "geometry": { "type": "Point", "coordinates": [ -122.348446423722635, 47.650044783198439 ] } },
    { "type": "Feature", "properties": { "OBJECTID": 54, "NAME": "Madison Middle School", "ADDRESS": "3429 45th Av SW", "ORIG_ADDRE": "3429 45th Av SW", "PIN": "9278300005", "LANDNO": 767795, "ORDINANCE": 0, "EFF_DATE": null, "SE_ANNO_CAD_DATA": null }, "geometry": { "type": "Point", "coordinates": [ -122.390217438393748, 47.572947803616344 ] } },
    { "type": "Feature", "properties": { "OBJECTID": 55, "NAME": "Volunteer Park Conservatory", "ADDRESS": "1400 E Galer St", "ORIG_ADDRE": "1400 E Galer St", "PIN": "2925049087", "LANDNO": 767796, "ORDINANCE": 123344, "EFF_DATE": null, "SE_ANNO_CAD_DATA": null }, "geometry": { "type": "Point", "coordinates": [ -122.315753860405181, 47.632131413317467 ] } },
    { "type": "Feature", "properties": { "OBJECTID": 56, "NAME": "Roosevelt High School", "ADDRESS": "1410 NE 66th St", "ORIG_ADDRE": "1410 NE 66th St", "PIN": "8826900005", "LANDNO": 767797, "ORDINANCE": 0, "EFF_DATE": null, "SE_ANNO_CAD_DATA": null }, "geometry": { "type": "Point", "coordinates": [ -122.312822694991539, 47.677237326191687 ] } },
    { "type": "Feature", "properties": { "OBJECTID": 306, "NAME": "Space Needle", "ADDRESS": "219 Fourth Av", "ORIG_ADDRE": "219 4th Av", "PIN": "1985200495", "LANDNO": 768047, "ORDINANCE": 119428, "EFF_DATE": "1999-04-19T08:00:00Z", "SE_ANNO_CAD_DATA": null }, "geometry": { "type": "Point", "coordinates": [ -122.349288035367906, 47.620507340997584 ] } },
    { "type": "Feature", "properties": { "OBJECTID": 315, "NAME": "Gas Works Park", "ADDRESS": "1901 N Northlake Way", "ORIG_ADDRE": "1901 N Northlake Way", "PIN": "1249700005", "LANDNO": 768056, "ORDINANCE": 121043, "EFF_DATE": "2002-12-16T08:00:00Z", "SE_ANNO_CAD_DATA": null }, "geometry": { "type": "Point", "coordinates": [ -122.334840496289218, 47.645488564493711 ] } },
    { "type": "Feature", "properties": { "OBJECTID": 340, "NAME": "Montlake Bridge and Montlake Cut", "ADDRESS": "24th Ave E / E Montlake Pl E", "ORIG_ADDRE": "24th Ave E & Montlake Blvd & Lake Washington Ship Canal", "PIN": " ", "LANDNO": 768081, "ORDINANCE": 107995, "EFF_DATE": "1979-12-13T08:00:00Z", "SE_ANNO_CAD_DATA": null }, "geometry": { "type": "Point", "coordinates": [ -122.304624778308991, 47.647221905881786 ] } },
    { "type": "Feature", "properties": { "OBJECTID": 470, "NAME": "Center for Wooden Boats", "ADDRESS": "1010 Valley Street", "ORIG_ADDRE": null, "PIN": null, "LANDNO": 768211, "ORDINANCE": null, "EFF_DATE": null, "SE_ANNO_CAD_DATA": null }, "geometry": { "type": "Point", "coordinates": [ -122.335733027994166, 47.626561745092786 ] } },
    { "type": "Feature", "properties": { "OBJECTID": 438, "NAME": "The Showbox", "ADDRESS": "1426 1st Avenue", "ORIG_ADDRE": null, "PIN": null, "LANDNO": 768179, "ORDINANCE": null, "EFF_DATE": null, "SE_ANNO_CAD_DATA": null }, "geometry": { "type": "Point", "coordinates": [ -122.339228279529095, 47.608498659552112 ] } },
    { "type": "Feature", "properties": { "OBJECTID": 291, "NAME": "Kubota Gardens", "ADDRESS": "9727 Renton Ave S", "ORIG_ADDRE": "9727 Renton Ave S", "PIN": "7131300122", "LANDNO": 768032, "ORDINANCE": 0, "EFF_DATE": null, "SE_ANNO_CAD_DATA": null }, "geometry": { "type": "Point", "coordinates": [ -122.26615603348462, 47.512846517632205 ] } }
]